[
  {
    "index": 0,
    "name": "alotau-069a-png-uhslc_rq",
    "Lat": -10.168,
    "Lon": 150.453,
    "HAT": 0.611754834651947,
    "HAT_count": 7561,
    "MHHW": 0.33131025911891071,
    "MHHW_count": 7561,
    "MHW": 0.23547529311721296,
    "MHW_count": 10712,
    "MSL": 1.1637387849340811E-06,
    "MSL_count": 184104,
    "MTL": -0.0087461164951853389,
    "MTL_count": 7394,
    "MLW": -0.24785199538580435,
    "MLW_count": 10707,
    "MLLW": -0.33233854584754563,
    "MLLW_count": 7504,
    "LAT": -0.68241345882415771,
    "LAT_count": 7504
  },
  {
    "index": 1,
    "name": "christmas-170a-kir-uhslc_rq",
    "Lat": -10.417,
    "Lon": 105.667,
    "HAT": 0.95040977001190186,
    "HAT_count": 7671,
    "MHHW": 0.55381538466275015,
    "MHHW_count": 7671,
    "MHW": 0.39513006509801568,
    "MHW_count": 14793,
    "MSL": 4.73317815223901E-06,
    "MSL_count": 184104,
    "MTL": -0.0017849819841034306,
    "MTL_count": 7661,
    "MLW": -0.39794378459475327,
    "MLW_count": 14794,
    "MLLW": -0.49120703186362968,
    "MLLW_count": 7661,
    "LAT": -0.8589780330657959,
    "LAT_count": 7661
  },
  {
    "index": 2,
    "name": "nardana_patches-58178-aus-bom",
    "Lat": -10.5048,
    "Lon": 142.2438,
    "HAT": 2.0175571441650391,
    "HAT_count": 7671,
    "MHHW": 0.9859787702866738,
    "MHHW_count": 7671,
    "MHW": 0.53418657103819922,
    "MHW_count": 15907,
    "MSL": -2.4815090756901559E-05,
    "MSL_count": 184104,
    "MTL": -0.035439606906235745,
    "MTL_count": 7658,
    "MLW": -0.60211726836386026,
    "MLW_count": 15910,
    "MLLW": -0.92679332945242643,
    "MLLW_count": 7658,
    "LAT": -1.711916446685791,
    "LAT_count": 7658
  },
  {
    "index": 3,
    "name": "goods_island-58200-aus-bom",
    "Lat": -10.5639,
    "Lon": 142.1486,
    "HAT": 1.8478102684020996,
    "HAT_count": 7651,
    "MHHW": 0.94612223864100886,
    "MHHW_count": 7651,
    "MHW": 0.73274908866634747,
    "MHW_count": 14881,
    "MSL": -1.5231693799774231E-05,
    "MSL_count": 184104,
    "MTL": 0.062683407797469642,
    "MTL_count": 7600,
    "MLW": -0.58075814658208436,
    "MLW_count": 14885,
    "MLLW": -1.2047829257809555,
    "MLLW_count": 7620,
    "LAT": -2.1792826652526855,
    "LAT_count": 7620
  },
  {
    "index": 4,
    "name": "ince_point-58140-aus-bom",
    "Lat": -10.575,
    "Lon": 142.3117,
    "HAT": 2.0683062076568604,
    "HAT_count": 7671,
    "MHHW": 1.0275328180142558,
    "MHHW_count": 7671,
    "MHW": 0.57315885611143247,
    "MHW_count": 15740,
    "MSL": -1.8916120370155107E-05,
    "MSL_count": 184104,
    "MTL": -0.03399812096089383,
    "MTL_count": 7670,
    "MLW": -0.63478328952938368,
    "MLW_count": 15743,
    "MLLW": -0.91888978619570449,
    "MLLW_count": 7670,
    "LAT": -1.6794365644454956,
    "LAT_count": 7670
  },
  {
    "index": 5,
    "name": "booby_island-336-aus-uhslc_fd",
    "Lat": -10.6,
    "Lon": 141.917,
    "HAT": 1.8828539848327637,
    "HAT_count": 7670,
    "MHHW": 1.0561019213956644,
    "MHHW_count": 7670,
    "MHW": 0.86967577047972,
    "MHW_count": 14817,
    "MSL": -1.588828785742206E-05,
    "MSL_count": 184104,
    "MTL": 0.063133162890137942,
    "MTL_count": 7670,
    "MLW": -0.74407315795063012,
    "MLW_count": 14817,
    "MLLW": -1.4121508023454179,
    "MLLW_count": 7671,
    "LAT": -2.5243015289306641,
    "LAT_count": 7671
  },
  {
    "index": 6,
    "name": "booby_island-58230-aus-bom",
    "Lat": -10.6026,
    "Lon": 141.9101,
    "HAT": 1.8693854808807373,
    "HAT_count": 7670,
    "MHHW": 1.058071738069932,
    "MHHW_count": 7670,
    "MHW": 0.87169406834546148,
    "MHW_count": 14814,
    "MSL": -1.6477141084744946E-05,
    "MSL_count": 184104,
    "MTL": 0.063277612830298632,
    "MTL_count": 7670,
    "MLW": -0.74578625105181107,
    "MLW_count": 14816,
    "MLLW": -1.4144749781555126,
    "MLLW_count": 7671,
    "LAT": -2.5281803607940674,
    "LAT_count": 7671
  },
  {
    "index": 7,
    "name": "booby_island-336a-aus-uhslc_rq",
    "Lat": -10.603,
    "Lon": 141.91,
    "HAT": 1.8781026601791382,
    "HAT_count": 7670,
    "MHHW": 1.055571755956624,
    "MHHW_count": 7670,
    "MHW": 0.86920200967783046,
    "MHW_count": 14813,
    "MSL": -1.4830443228711551E-05,
    "MSL_count": 184104,
    "MTL": 0.063076244910042767,
    "MTL_count": 7670,
    "MLW": -0.74368458024223738,
    "MLW_count": 14814,
    "MLLW": -1.4104045079758782,
    "MLLW_count": 7671,
    "LAT": -2.5206868648529053,
    "LAT_count": 7671
  },
  {
    "index": 8,
    "name": "apia-401-wsm-uhslc_fd",
    "Lat": -13.817,
    "Lon": -171.75,
    "HAT": 0.69305270910263062,
    "HAT_count": 7671,
    "MHHW": 0.4319746531123615,
    "MHHW_count": 7671,
    "MHW": 0.39359298666315579,
    "MHW_count": 14822,
    "MSL": -3.8537074402631095E-06,
    "MSL_count": 184104,
    "MTL": 0.0047631418850546956,
    "MTL_count": 7671,
    "MLW": -0.38454151373130879,
    "MLW_count": 14822,
    "MLLW": -0.40985460980333849,
    "MLLW_count": 7671,
    "LAT": -0.6180039644241333,
    "LAT_count": 7671
  },
  {
    "index": 9,
    "name": "lucinda_offshore-59200-aus-bom",
    "Lat": -18.5217,
    "Lon": 146.385,
    "HAT": 2.018526554107666,
    "HAT_count": 7665,
    "MHHW": 1.0648097394946072,
    "MHHW_count": 7665,
    "MHW": 0.81981872199724182,
    "MHW_count": 14749,
    "MSL": 5.9704357321276869E-06,
    "MSL_count": 184104,
    "MTL": 0.010805426912845877,
    "MTL_count": 7665,
    "MLW": -0.80001840601343888,
    "MLW_count": 14746,
    "MLLW": -0.98319273611904356,
    "MLLW_count": 7671,
    "LAT": -1.7420791387557983,
    "LAT_count": 7671
  },
  {
    "index": 10,
    "name": "rodrigues-105-mus-uhslc_fd",
    "Lat": -19.668,
    "Lon": 63.418,
    "HAT": 0.906027615070343,
    "HAT_count": 7671,
    "MHHW": 0.49705402370975227,
    "MHHW_count": 7671,
    "MHW": 0.4510942195859633,
    "MHW_count": 14826,
    "MSL": 1.2012344424209381E-05,
    "MSL_count": 184104,
    "MTL": -0.0021995150757920245,
    "MTL_count": 7671,
    "MLW": -0.45145711183639431,
    "MLW_count": 14827,
    "MLLW": -0.48446047934129877,
    "MLLW_count": 7671,
    "LAT": -0.85806012153625488,
    "LAT_count": 7671
  },
  {
    "index": 11,
    "name": "manus-065a-png-uhslc_rq",
    "Lat": -2.013,
    "Lon": 147.272,
    "HAT": 0.47036156058311462,
    "HAT_count": 7668,
    "MHHW": 0.27643180157079922,
    "MHHW_count": 7668,
    "MHW": 0.22041186592739659,
    "MHW_count": 11358,
    "MSL": -4.3145892957238557E-06,
    "MSL_count": 184104,
    "MTL": -0.01492994452303655,
    "MTL_count": 7528,
    "MLW": -0.22321170419932618,
    "MLW_count": 11358,
    "MLLW": -0.354706226429521,
    "MLLW_count": 7531,
    "LAT": -0.70540708303451538,
    "LAT_count": 7531
  },
  {
    "index": 12,
    "name": "lombrum-400-png-uhslc_fd",
    "Lat": -2.033,
    "Lon": 147.367,
    "HAT": 0.46262362599372864,
    "HAT_count": 7668,
    "MHHW": 0.27625139607946125,
    "MHHW_count": 7668,
    "MHW": 0.22090759712175931,
    "MHW_count": 11278,
    "MSL": -2.3720304213982533E-06,
    "MSL_count": 184104,
    "MTL": -0.015309613660813707,
    "MTL_count": 7526,
    "MLW": -0.22393047747738354,
    "MLW_count": 11279,
    "MLLW": -0.35359743834138252,
    "MLLW_count": 7529,
    "LAT": -0.70192080736160278,
    "LAT_count": 7529
  },
  {
    "index": 13,
    "name": "lombrum-56130-png-bom",
    "Lat": -2.0367,
    "Lon": 147.3753,
    "HAT": 0.46456360816955566,
    "HAT_count": 7668,
    "MHHW": 0.27647452675923267,
    "MHHW_count": 7668,
    "MHW": 0.22080387184099024,
    "MHW_count": 11275,
    "MSL": -2.2367340289253389E-06,
    "MSL_count": 184104,
    "MTL": -0.015386340847073054,
    "MTL_count": 7526,
    "MLW": -0.22428198932374291,
    "MLW_count": 11276,
    "MLLW": -0.35367523091112923,
    "MLLW_count": 7529,
    "LAT": -0.70183664560317993,
    "LAT_count": 7529
  },
  {
    "index": 14,
    "name": "lombrum_manus_is-400a-png-uhslc_rq",
    "Lat": -2.037,
    "Lon": 147.375,
    "HAT": 0.46387407183647156,
    "HAT_count": 7668,
    "MHHW": 0.27644518574916682,
    "MHHW_count": 7668,
    "MHW": 0.22051016138866544,
    "MHW_count": 11305,
    "MSL": -2.0958789852086213E-06,
    "MSL_count": 184104,
    "MTL": -0.015268760863259689,
    "MTL_count": 7526,
    "MLW": -0.22378402723833063,
    "MLW_count": 11304,
    "MLLW": -0.35388798466310262,
    "MLLW_count": 7529,
    "LAT": -0.701613187789917,
    "LAT_count": 7529
  },
  {
    "index": 15,
    "name": "la_libertad-091-ecu-uhslc_fd",
    "Lat": -2.2,
    "Lon": -80.917,
    "HAT": 1.350068211555481,
    "HAT_count": 7671,
    "MHHW": 0.85535467911879282,
    "MHHW_count": 7671,
    "MHW": 0.80848277284744963,
    "MHW_count": 14821,
    "MSL": -1.0308719738853791E-05,
    "MSL_count": 184104,
    "MTL": 0.0034513026158626173,
    "MTL_count": 7671,
    "MLW": -0.80584133236759858,
    "MLW_count": 14822,
    "MLLW": -0.89817476262870344,
    "MLLW_count": 7671,
    "LAT": -1.3392285108566284,
    "LAT_count": 7671
  },
  {
    "index": 16,
    "name": "kanton-013-kir-uhslc_fd",
    "Lat": -2.81,
    "Lon": -171.718,
    "HAT": 0.70293045043945312,
    "HAT_count": 7671,
    "MHHW": 0.43257243242763105,
    "MHHW_count": 7671,
    "MHW": 0.41091079533355485,
    "MHW_count": 14822,
    "MSL": 2.1944053280543244E-06,
    "MSL_count": 184104,
    "MTL": 0.014651392029791547,
    "MTL_count": 7671,
    "MLW": -0.384524348089973,
    "MLW_count": 14818,
    "MLLW": -0.40510228091323724,
    "MLLW_count": 7671,
    "LAT": -0.610325276851654,
    "LAT_count": 7671
  },
  {
    "index": 17,
    "name": "mackay_outer_harbour-59510-aus-bom",
    "Lat": -21.1167,
    "Lon": 149.2333,
    "HAT": 3.4122815132141113,
    "HAT_count": 7671,
    "MHHW": 2.1741503944469702,
    "MHHW_count": 7671,
    "MHW": 1.8041157915350734,
    "MHW_count": 14821,
    "MSL": 2.7610541484874115E-05,
    "MSL_count": 184104,
    "MTL": -0.014148825076279783,
    "MTL_count": 7671,
    "MLW": -1.8208186986169532,
    "MLW_count": 14821,
    "MLLW": -1.9309265145405752,
    "MLLW_count": 7671,
    "LAT": -3.0312268733978271,
    "LAT_count": 7671
  },
  {
    "index": 18,
    "name": "hay_point-59511-aus-bom",
    "Lat": -21.2683,
    "Lon": 149.3033,
    "HAT": 3.5947296619415283,
    "HAT_count": 7671,
    "MHHW": 2.2980682258033456,
    "MHHW_count": 7671,
    "MHW": 1.923823825985336,
    "MHW_count": 14821,
    "MSL": 2.8703361989936181E-05,
    "MSL_count": 184104,
    "MTL": -0.015208497908950108,
    "MTL_count": 7671,
    "MLW": -1.9416548339600392,
    "MLW_count": 14821,
    "MLLW": -2.0514755670086622,
    "MLLW_count": 7671,
    "LAT": -3.221341609954834,
    "LAT_count": 7671
  },
  {
    "index": 19,
    "name": "half_tide_tug_harbour-h060010a-aus-bom",
    "Lat": -21.28,
    "Lon": 149.3,
    "HAT": 2.4485480785369873,
    "HAT_count": 7671,
    "MHHW": 1.5678917976654021,
    "MHHW_count": 7671,
    "MHW": 1.5194141903743621,
    "MHW_count": 14822,
    "MSL": 2.0850694042244457E-05,
    "MSL_count": 184104,
    "MTL": 0.00097111383242489541,
    "MTL_count": 7671,
    "MLW": -1.5128397025904856,
    "MLW_count": 14822,
    "MLLW": -1.591689205557407,
    "MLLW_count": 7671,
    "LAT": -2.4362785816192627,
    "LAT_count": 7671
  },
  {
    "index": 20,
    "name": "tubuai-113-fra-refmar",
    "Lat": -23.34177,
    "Lon": -23.34177,
    "HAT": 0.34718635678291321,
    "HAT_count": 7670,
    "MHHW": 0.18164143521186391,
    "MHHW_count": 7670,
    "MHW": 0.17411859360663323,
    "MHW_count": 14849,
    "MSL": 4.58268741175293E-06,
    "MSL_count": 184104,
    "MTL": -0.0010384183675806603,
    "MTL_count": 7670,
    "MLW": -0.17689337301165217,
    "MLW_count": 14850,
    "MLLW": -0.20041337071355467,
    "MLLW_count": 7671,
    "LAT": -0.35996058583259583,
    "LAT_count": 7671
  },
  {
    "index": 21,
    "name": "fishermans_landing-h052003b-aus-bom",
    "Lat": -23.78,
    "Lon": 151.17,
    "HAT": 2.0424447059631348,
    "HAT_count": 7671,
    "MHHW": 1.2863491130394227,
    "MHHW_count": 7671,
    "MHW": 1.146366614671938,
    "MHW_count": 14822,
    "MSL": -1.4471899360215648E-06,
    "MSL_count": 184104,
    "MTL": -0.026481375886896353,
    "MTL_count": 7671,
    "MLW": -1.1987428391309563,
    "MLW_count": 14820,
    "MLLW": -1.268685507103791,
    "MLLW_count": 7671,
    "LAT": -1.9579722881317139,
    "LAT_count": 7671
  },
  {
    "index": 22,
    "name": "south_trees-h052026a-aus-bom",
    "Lat": -23.85,
    "Lon": 151.3,
    "HAT": 2.0578386783599854,
    "HAT_count": 7671,
    "MHHW": 1.3030784834380753,
    "MHHW_count": 7671,
    "MHW": 1.1275109805356731,
    "MHW_count": 14822,
    "MSL": 1.635361351925074E-05,
    "MSL_count": 184104,
    "MTL": 0.0020020768672521852,
    "MTL_count": 7671,
    "MLW": -1.1244976598161114,
    "MLW_count": 14820,
    "MLLW": -1.1956133968538574,
    "MLLW_count": 7671,
    "LAT": -1.8719556331634522,
    "LAT_count": 7671
  },
  {
    "index": 23,
    "name": "inhambane-900-moz-uhslc_fd",
    "Lat": -23.917,
    "Lon": 35.5,
    "HAT": 1.7610278129577637,
    "HAT_count": 7671,
    "MHHW": 1.0183531138965825,
    "MHHW_count": 7671,
    "MHW": 0.99725235347401286,
    "MHW_count": 14841,
    "MSL": -3.5161097926736284E-05,
    "MSL_count": 184104,
    "MTL": -0.011483988268971485,
    "MTL_count": 7671,
    "MLW": -1.0313739566886446,
    "MLW_count": 14839,
    "MLLW": -1.0812748542856538,
    "MLLW_count": 7671,
    "LAT": -1.7153650522232056,
    "LAT_count": 7671
  },
  {
    "index": 24,
    "name": "carnarvon-167-aus-uhslc_fd",
    "Lat": -24.883,
    "Lon": 113.617,
    "HAT": 0.95425903797149658,
    "HAT_count": 7671,
    "MHHW": 0.51688359942801487,
    "MHHW_count": 7671,
    "MHW": 0.368204363781927,
    "MHW_count": 14625,
    "MSL": 1.2521779673412874E-05,
    "MSL_count": 184104,
    "MTL": 0.0011616388155427867,
    "MTL_count": 7666,
    "MLW": -0.36316601167658019,
    "MLW_count": 14628,
    "MLLW": -0.52418000214553484,
    "MLLW_count": 7666,
    "LAT": -1.0434852838516235,
    "LAT_count": 7666
  },
  {
    "index": 25,
    "name": "san_felix-035-chl-uhslc_fd",
    "Lat": -26.283,
    "Lon": -80.133,
    "HAT": 0.68712788820266724,
    "HAT_count": 7671,
    "MHHW": 0.41306516863970555,
    "MHHW_count": 7671,
    "MHW": 0.27244790300674887,
    "MHW_count": 14820,
    "MSL": 9.5224650629776213E-06,
    "MSL_count": 184104,
    "MTL": -0.0070909557433667539,
    "MTL_count": 7671,
    "MLW": -0.28546430551007262,
    "MLW_count": 14822,
    "MLLW": -0.32529184852281551,
    "MLLW_count": 7671,
    "LAT": -0.47326788306236267,
    "LAT_count": 7671
  },
  {
    "index": 26,
    "name": "easter-022c-chl-uhslc_rq",
    "Lat": -27.155,
    "Lon": -109.473,
    "HAT": 0.52112233638763428,
    "HAT_count": 7671,
    "MHHW": 0.29447150727550159,
    "MHHW_count": 7671,
    "MHW": 0.21589505147772078,
    "MHW_count": 14820,
    "MSL": 1.123102514549942E-06,
    "MSL_count": 184104,
    "MTL": -0.0021674909553260034,
    "MTL_count": 7671,
    "MLW": -0.21942510741191562,
    "MLW_count": 14822,
    "MLLW": -0.24787487268815803,
    "MLLW_count": 7671,
    "LAT": -0.42346322536468506,
    "LAT_count": 7671
  },
  {
    "index": 27,
    "name": "peel_inlet-plpee01-aus-bom",
    "Lat": -32.59222,
    "Lon": 115.71389,
    "HAT": 0.32335320115089417,
    "HAT_count": 7485,
    "MHHW": 0.10490309824193696,
    "MHHW_count": 7485,
    "MHW": 0.082535828775286743,
    "MHW_count": 8988,
    "MSL": -6.6376116764115862E-06,
    "MSL_count": 184104,
    "MTL": 0.00645233153634285,
    "MTL_count": 7422,
    "MLW": -0.079126851523032379,
    "MLW_count": 8990,
    "MLLW": -0.087000962548916663,
    "MLLW_count": 7608,
    "LAT": -0.23919948935508728,
    "LAT_count": 7608
  },
  {
    "index": 28,
    "name": "juan_fernandez-021-chl-uhslc_fd",
    "Lat": -33.622,
    "Lon": -78.833,
    "HAT": 0.80123889446258545,
    "HAT_count": 7671,
    "MHHW": 0.47374317938384924,
    "MHHW_count": 7671,
    "MHW": 0.32513133294983687,
    "MHW_count": 14822,
    "MSL": 8.1997024836620463E-06,
    "MSL_count": 184104,
    "MTL": -0.0074007144801301536,
    "MTL_count": 7671,
    "MLW": -0.33783751489200836,
    "MLW_count": 14821,
    "MLLW": -0.37671670934743623,
    "MLLW_count": 7671,
    "LAT": -0.613336443901062,
    "LAT_count": 7671
  },
  {
    "index": 29,
    "name": "mossel_bay-185-zaf-uhslc_fd",
    "Lat": -34.067,
    "Lon": 22.333,
    "HAT": 1.2286970615386963,
    "HAT_count": 7671,
    "MHHW": 0.70228381685134622,
    "MHHW_count": 7671,
    "MHW": 0.65357204527718438,
    "MHW_count": 14822,
    "MSL": -4.7795668959496855E-06,
    "MSL_count": 184104,
    "MTL": 0.010572683243547581,
    "MTL_count": 7671,
    "MLW": -0.63630311316246924,
    "MLW_count": 14822,
    "MLLW": -0.67861535321771049,
    "MLLW_count": 7671,
    "LAT": -1.110481858253479,
    "LAT_count": 7671
  },
  {
    "index": 30,
    "name": "port_giles-61685-aus-bom",
    "Lat": -35.0218,
    "Lon": 137.7683,
    "HAT": 1.3781164884567261,
    "HAT_count": 7608,
    "MHHW": 0.80996679940682537,
    "MHHW_count": 7608,
    "MHW": 0.59432672365964667,
    "MHW_count": 14832,
    "MSL": -3.6463310790657724E-06,
    "MSL_count": 184104,
    "MTL": -0.0036881560475198016,
    "MTL_count": 7608,
    "MLW": -0.61263806011127642,
    "MLW_count": 14831,
    "MLLW": -0.74319934813307431,
    "MLLW_count": 7671,
    "LAT": -1.1801770925521851,
    "LAT_count": 7671
  },
  {
    "index": 31,
    "name": "tristan_da_cunha-722a-gbr-uhslc_rq",
    "Lat": -37.05,
    "Lon": -12.3,
    "HAT": 0.46194630861282349,
    "HAT_count": 7671,
    "MHHW": 0.25146767476471849,
    "MHHW_count": 7671,
    "MHW": 0.23856629020568573,
    "MHW_count": 14823,
    "MSL": -1.3637115468540967E-05,
    "MSL_count": 184104,
    "MTL": -0.0032370214732593268,
    "MTL_count": 7671,
    "MLW": -0.24350582117251371,
    "MLW_count": 14821,
    "MLLW": -0.26238281082368248,
    "MLLW_count": 7671,
    "LAT": -0.50128483772277832,
    "LAT_count": 7671
  },
  {
    "index": 32,
    "name": "pt_la_rue-121-syc-uhslc_fd",
    "Lat": -4.672,
    "Lon": 55.528,
    "HAT": 1.0574424266815186,
    "HAT_count": 7671,
    "MHHW": 0.596255261317639,
    "MHHW_count": 7671,
    "MHW": 0.42781472213968397,
    "MHW_count": 14819,
    "MSL": -1.4218340100441609E-05,
    "MSL_count": 184104,
    "MTL": -0.0051779133393641437,
    "MTL_count": 7671,
    "MLW": -0.4417676918570092,
    "MLW_count": 14819,
    "MLLW": -0.50368506324530549,
    "MLLW_count": 7671,
    "LAT": -0.82775843143463135,
    "LAT_count": 7671
  },
  {
    "index": 33,
    "name": "paita-678a-per-uhslc_rq",
    "Lat": -5.083,
    "Lon": -81.167,
    "HAT": 1.0259559154510498,
    "HAT_count": 7671,
    "MHHW": 0.62086862133163434,
    "MHHW_count": 7671,
    "MHW": 0.56509240595552224,
    "MHW_count": 14822,
    "MSL": -6.3558502568489917E-06,
    "MSL_count": 184104,
    "MTL": 0.0036896786418632657,
    "MTL_count": 7671,
    "MLW": -0.56111308982169283,
    "MLW_count": 14822,
    "MLLW": -0.6571983854045863,
    "MLLW_count": 7671,
    "LAT": -1.0256408452987671,
    "LAT_count": 7671
  },
  {
    "index": 34,
    "name": "pari-159a-idn-uhslc_rq",
    "Lat": -5.85,
    "Lon": 106.617,
    "HAT": 0.70208662748336792,
    "HAT_count": 7597,
    "MHHW": 0.29141395811787724,
    "MHHW_count": 7597,
    "MHW": 0.23954575473728063,
    "MHW_count": 9170,
    "MSL": -1.7577274008464255E-05,
    "MSL_count": 184104,
    "MTL": 0.0068458001314808965,
    "MTL_count": 7578,
    "MLW": -0.23962801180406312,
    "MLW_count": 9170,
    "MLLW": -0.27586353118768608,
    "MLLW_count": 7652,
    "LAT": -0.66231071949005127,
    "LAT_count": 7652
  },
  {
    "index": 35,
    "name": "port_stanley-290-gbr-uhslc_fd",
    "Lat": -51.75,
    "Lon": -57.933,
    "HAT": 0.94835221767425537,
    "HAT_count": 7671,
    "MHHW": 0.56446399043392226,
    "MHHW_count": 7671,
    "MHW": 0.47733781782973311,
    "MHW_count": 14822,
    "MSL": -6.938779873923031E-06,
    "MSL_count": 184104,
    "MTL": 0.0070222167856108944,
    "MTL_count": 7671,
    "MLW": -0.46705027396517107,
    "MLW_count": 14822,
    "MLLW": -0.60583816853336958,
    "MLLW_count": 7671,
    "LAT": -0.981559693813324,
    "LAT_count": 7671
  },
  {
    "index": 36,
    "name": "port_stanley-290a-gbr-uhslc_rq",
    "Lat": -52.7,
    "Lon": -57.867,
    "HAT": 0.97826820611953735,
    "HAT_count": 7670,
    "MHHW": 0.57781381420256883,
    "MHHW_count": 7670,
    "MHW": 0.49127810676635886,
    "MHW_count": 14821,
    "MSL": -1.2325645208324002E-05,
    "MSL_count": 184104,
    "MTL": 0.007590600968326814,
    "MTL_count": 7670,
    "MLW": -0.48007306005841172,
    "MLW_count": 14821,
    "MLLW": -0.62238061089486785,
    "MLLW_count": 7671,
    "LAT": -1.0076090097427368,
    "LAT_count": 7671
  },
  {
    "index": 37,
    "name": "macquarie_is-680-aus-uhslc_fd",
    "Lat": -54.483,
    "Lon": 158.967,
    "HAT": 0.7118985652923584,
    "HAT_count": 7671,
    "MHHW": 0.41685853859504629,
    "MHHW_count": 7671,
    "MHW": 0.31675497491516758,
    "MHW_count": 14819,
    "MSL": -8.2049772899601941E-07,
    "MSL_count": 184104,
    "MTL": -0.0041349778714361244,
    "MTL_count": 7671,
    "MLW": -0.32469713333641,
    "MLW_count": 14821,
    "MLLW": -0.35348930873249707,
    "MLLW_count": 7671,
    "LAT": -0.590885579586029,
    "LAT_count": 7671
  },
  {
    "index": 38,
    "name": "anewa_bay-048a-png-uhslc_rq",
    "Lat": -6.183,
    "Lon": 155.883,
    "HAT": 0.90236330032348633,
    "HAT_count": 7546,
    "MHHW": 0.5394739066398726,
    "MHHW_count": 7546,
    "MHW": 0.37241588681127658,
    "MHW_count": 14351,
    "MSL": -6.6454590508969762E-06,
    "MSL_count": 184104,
    "MTL": -2.2590309369965124E-05,
    "MTL_count": 7546,
    "MLW": -0.37868273101502475,
    "MLW_count": 14349,
    "MLLW": -0.47932240520298613,
    "MLLW_count": 7671,
    "LAT": -0.82404237985610962,
    "LAT_count": 7671
  },
  {
    "index": 39,
    "name": "lobos_de_afuera-084-per-uhslc_fd",
    "Lat": -6.933,
    "Lon": -80.717,
    "HAT": 0.83770793676376343,
    "HAT_count": 7671,
    "MHHW": 0.50459810067119959,
    "MHHW_count": 7671,
    "MHW": 0.43747127902528771,
    "MHW_count": 14820,
    "MSL": -3.13708381660361E-06,
    "MSL_count": 184104,
    "MTL": 0.0033100929909258567,
    "MTL_count": 7671,
    "MLW": -0.43341670012772426,
    "MLW_count": 14823,
    "MLLW": -0.5321182754663395,
    "MLLW_count": 7671,
    "LAT": -0.85427176952362061,
    "LAT_count": 7671
  },
  {
    "index": 40,
    "name": "vernadsky-ver-ukr-noc",
    "Lat": -65.25,
    "Lon": -64.2667,
    "HAT": 0.95231175422668457,
    "HAT_count": 7661,
    "MHHW": 0.47867284692041484,
    "MHHW_count": 7661,
    "MHW": 0.37728261995654738,
    "MHW_count": 12882,
    "MSL": -6.6781147760308124E-06,
    "MSL_count": 184104,
    "MTL": 0.011234105055122907,
    "MTL_count": 7564,
    "MLW": -0.34263138004235438,
    "MLW_count": 12884,
    "MLLW": -0.59581271396344415,
    "MLLW_count": 7574,
    "LAT": -1.1346156597137451,
    "LAT_count": 7574
  },
  {
    "index": 41,
    "name": "faraday-700-ata-uhslc_fd",
    "Lat": -65.25,
    "Lon": -64.267,
    "HAT": 0.95697009563446045,
    "HAT_count": 7662,
    "MHHW": 0.48089649353390368,
    "MHHW_count": 7662,
    "MHW": 0.37982359222968604,
    "MHW_count": 12899,
    "MSL": -9.2338561669226122E-06,
    "MSL_count": 184104,
    "MTL": 0.01103150699725294,
    "MTL_count": 7565,
    "MLW": -0.34476766457059238,
    "MLW_count": 12900,
    "MLLW": -0.59952487256909137,
    "MLLW_count": 7574,
    "LAT": -1.1386687755584717,
    "LAT_count": 7574
  },
  {
    "index": 42,
    "name": "davis-173-aus-uhslc_fd",
    "Lat": -68.45,
    "Lon": 77.967,
    "HAT": 1.2299822568893433,
    "HAT_count": 7671,
    "MHHW": 0.59231051573158455,
    "MHHW_count": 7671,
    "MHW": 0.35110471853996222,
    "MHW_count": 13015,
    "MSL": 1.104154954083066E-06,
    "MSL_count": 184104,
    "MTL": -0.0041618020603215794,
    "MTL_count": 7669,
    "MLW": -0.37715443154137535,
    "MLW_count": 13016,
    "MLLW": -0.46867420095870216,
    "MLLW_count": 7669,
    "LAT": -0.92903119325637817,
    "LAT_count": 7669
  },
  {
    "index": 43,
    "name": "ascension-291-gbr-uhslc_fd",
    "Lat": -7.917,
    "Lon": -14.417,
    "HAT": 0.703177273273468,
    "HAT_count": 7671,
    "MHHW": 0.39675221715902875,
    "MHHW_count": 7671,
    "MHW": 0.35256575289874886,
    "MHW_count": 14820,
    "MSL": -2.5536834280305171E-06,
    "MSL_count": 184104,
    "MTL": -0.001377373350142256,
    "MTL_count": 7671,
    "MLW": -0.35781409129601938,
    "MLW_count": 14821,
    "MLLW": -0.3814994489730158,
    "MLLW_count": 7671,
    "LAT": -0.60253435373306274,
    "LAT_count": 7671
  },
  {
    "index": 44,
    "name": "meneng-158a-idn-uhslc_rq",
    "Lat": -8.117,
    "Lon": 114.383,
    "HAT": 1.2701829671859741,
    "HAT_count": 7668,
    "MHHW": 0.71181479084104682,
    "MHHW_count": 7668,
    "MHW": 0.51519844442036378,
    "MHW_count": 14639,
    "MSL": 3.5852186416377745E-05,
    "MSL_count": 184104,
    "MTL": -0.022053679489403719,
    "MTL_count": 7630,
    "MLW": -0.55360773954568743,
    "MLW_count": 14639,
    "MLLW": -0.79784486378162034,
    "MLLW_count": 7633,
    "LAT": -1.3968307971954346,
    "LAT_count": 7633
  },
  {
    "index": 45,
    "name": "sadeng-417-idn-uhslc_fd",
    "Lat": -8.5,
    "Lon": 110.783,
    "HAT": 1.3505059480667114,
    "HAT_count": 7671,
    "MHHW": 0.76154651691658293,
    "MHHW_count": 7671,
    "MHW": 0.593504664741753,
    "MHW_count": 14786,
    "MSL": 3.455064375373905E-05,
    "MSL_count": 184104,
    "MTL": -0.0047028108643356048,
    "MTL_count": 7658,
    "MLW": -0.59946467693645633,
    "MLW_count": 14787,
    "MLLW": -0.72418780623760648,
    "MLLW_count": 7658,
    "LAT": -1.3543014526367188,
    "LAT_count": 7658
  },
  {
    "index": 46,
    "name": "funafuti-025b-tuv-uhslc_rq",
    "Lat": -8.503,
    "Lon": 179.21,
    "HAT": 1.1880345344543457,
    "HAT_count": 7671,
    "MHHW": 0.68571180150221833,
    "MHHW_count": 7671,
    "MHW": 0.615744901663652,
    "MHW_count": 14822,
    "MSL": -9.3780792420287669E-06,
    "MSL_count": 184104,
    "MTL": -0.00037230463393726206,
    "MTL_count": 7671,
    "MLW": -0.62164022542178787,
    "MLW_count": 14819,
    "MLLW": -0.67562405956395988,
    "MLLW_count": 7671,
    "LAT": -1.0962855815887451,
    "LAT_count": 7671
  },
  {
    "index": 47,
    "name": "auasi-404-asm-uhslc_fd",
    "Lat": -14.272,
    "Lon": -170.573,
    "HAT": 0.66126590967178345,
    "HAT_count": 7671,
    "MHHW": 0.41353500530603515,
    "MHHW_count": 7671,
    "MHW": 0.37395770531797462,
    "MHW_count": 14821,
    "MSL": 1.885972243051754E-06,
    "MSL_count": 184104,
    "MTL": -0.0007936187023414703,
    "MTL_count": 7671,
    "MLW": -0.37706747522390488,
    "MLW_count": 14819,
    "MLLW": -0.39568130137976015,
    "MLLW_count": 7671,
    "LAT": -0.64473634958267212,
    "LAT_count": 7671
  },
  {
    "index": 48,
    "name": "s_gravendeel-gravdl-nld-rws_hist",
    "Lat": 51.77915,
    "Lon": 4.62585,
    "HAT": 0.5201607346534729,
    "HAT_count": 7671,
    "MHHW": 0.29933644003904858,
    "MHHW_count": 7671,
    "MHW": 0.24783368181369822,
    "MHW_count": 16187,
    "MSL": -2.9442613427596656E-05,
    "MSL_count": 184104,
    "MTL": 0.011088663990812809,
    "MTL_count": 7671,
    "MLW": -0.23462743931214947,
    "MLW_count": 16189,
    "MLLW": -0.26620358807946443,
    "MLLW_count": 7671,
    "LAT": -0.41247639060020447,
    "LAT_count": 7671
  },
  {
    "index": 49,
    "name": "husum-9530020-deu-wsv",
    "Lat": 54.47394,
    "Lon": 9.02586,
    "HAT": 2.1276023387908936,
    "HAT_count": 7671,
    "MHHW": 1.560792072179684,
    "MHHW_count": 7671,
    "MHW": 1.4756331047809881,
    "MHW_count": 14820,
    "MSL": -5.7235395384309208E-06,
    "MSL_count": 184104,
    "MTL": -0.14917778367144202,
    "MTL_count": 7671,
    "MLW": -1.7819581391711319,
    "MLW_count": 14822,
    "MLLW": -1.8551560572734978,
    "MLLW_count": 7671,
    "LAT": -2.6594412326812744,
    "LAT_count": 7671
  },
  {
    "index": 50,
    "name": "point_fortin-728a-tto-uhslc_rq",
    "Lat": 10.1,
    "Lon": -61.417,
    "HAT": 0.85017305612564087,
    "HAT_count": 7671,
    "MHHW": 0.48612371722476422,
    "MHHW_count": 7671,
    "MHW": 0.42974395709042285,
    "MHW_count": 14821,
    "MSL": -1.3534133668246896E-05,
    "MSL_count": 184104,
    "MTL": -0.0035926707580083987,
    "MTL_count": 7671,
    "MLW": -0.43933462820012076,
    "MLW_count": 14820,
    "MLLW": -0.54151558712087922,
    "MLLW_count": 7671,
    "LAT": -0.8761286735534668,
    "LAT_count": 7671
  },
  {
    "index": 51,
    "name": "clipperton-391c-fra-uhslc_rq",
    "Lat": 10.28,
    "Lon": -109.222,
    "HAT": 0.67146545648574829,
    "HAT_count": 7625,
    "MHHW": 0.33707719912186079,
    "MHHW_count": 7625,
    "MHW": 0.25891395455129984,
    "MHW_count": 14567,
    "MSL": -7.9342488388201537E-06,
    "MSL_count": 184104,
    "MTL": 0.00056372103732650635,
    "MTL_count": 7604,
    "MLW": -0.25790846894110814,
    "MLW_count": 14565,
    "MLLW": -0.3339212656862276,
    "MLLW_count": 7650,
    "LAT": -0.69306939840316772,
    "LAT_count": 7650
  },
  {
    "index": 52,
    "name": "la_guaira-247a-ven-uhslc_rq",
    "Lat": 10.617,
    "Lon": -66.933,
    "HAT": 0.35968676209449768,
    "HAT_count": 7536,
    "MHHW": 0.15530801233019714,
    "MHHW_count": 7536,
    "MHW": 0.10316399633494193,
    "MHW_count": 11181,
    "MSL": -2.982025770067526E-06,
    "MSL_count": 184104,
    "MTL": 0.0056101948401643762,
    "MTL_count": 7416,
    "MLW": -0.094033702980815592,
    "MLW_count": 11182,
    "MLLW": -0.12383746051794246,
    "MLLW_count": 7551,
    "LAT": -0.30577367544174194,
    "LAT_count": 7551
  },
  {
    "index": 53,
    "name": "puerto_madero-318a-mex-uhslc_rq",
    "Lat": 14.717,
    "Lon": -92.433,
    "HAT": 1.1086183786392212,
    "HAT_count": 7671,
    "MHHW": 0.71300686558720927,
    "MHHW_count": 7671,
    "MHW": 0.61637172612418978,
    "MHW_count": 14821,
    "MSL": -9.3994663751536866E-06,
    "MSL_count": 184104,
    "MTL": -0.0018976818449166879,
    "MTL_count": 7671,
    "MLW": -0.62225938587978624,
    "MLW_count": 14820,
    "MLLW": -0.65466812802734842,
    "MLLW_count": 7671,
    "LAT": -1.0184299945831299,
    "LAT_count": 7671
  },
  {
    "index": 54,
    "name": "roseau-786-dom-uhslc_fd",
    "Lat": 15.3,
    "Lon": -61.4,
    "HAT": 0.30446857213974,
    "HAT_count": 7626,
    "MHHW": 0.15502762626536598,
    "MHHW_count": 7626,
    "MHW": 0.11130886644863428,
    "MHW_count": 14191,
    "MSL": -5.0757669600976275E-06,
    "MSL_count": 184104,
    "MTL": 0.0033375731537943713,
    "MTL_count": 7626,
    "MLW": -0.10318743393112105,
    "MLW_count": 14195,
    "MLLW": -0.17636859705222951,
    "MLLW_count": 7671,
    "LAT": -0.37395104765892029,
    "LAT_count": 7671
  },
  {
    "index": 55,
    "name": "puerto_castilla-784a-hnd-uhslc_rq",
    "Lat": 16.017,
    "Lon": -86.033,
    "HAT": 0.28382942080497742,
    "HAT_count": 7671,
    "MHHW": 0.090658492013110714,
    "MHHW_count": 7671,
    "MHW": 0.083535668670173757,
    "MHW_count": 14829,
    "MSL": 1.5603781004816688E-08,
    "MSL_count": 184104,
    "MTL": 0.0013734353548440813,
    "MTL_count": 7671,
    "MLW": -0.081386839107979558,
    "MLW_count": 14827,
    "MLLW": -0.11343644510876819,
    "MLLW_count": 7671,
    "LAT": -0.26993125677108765,
    "LAT_count": 7671
  },
  {
    "index": 56,
    "name": "penuelas_pr-243a-pri-uhslc_rq",
    "Lat": 17.972,
    "Lon": -66.762,
    "HAT": 0.2291070818901062,
    "HAT_count": 7505,
    "MHHW": 0.099829916134802674,
    "MHHW_count": 7505,
    "MHW": 0.089573275708552724,
    "MHW_count": 8675,
    "MSL": -2.6137476598874324E-06,
    "MSL_count": 184104,
    "MTL": 0.0025587218741190795,
    "MTL_count": 7328,
    "MLW": -0.0830081424324308,
    "MLW_count": 8676,
    "MLLW": -0.096579260268035247,
    "MLLW_count": 7494,
    "LAT": -0.23753154277801514,
    "LAT_count": 7494
  },
  {
    "index": 57,
    "name": "sanchez_magallanes-417-mex-unam_hist",
    "Lat": 18.29683,
    "Lon": -93.8545,
    "HAT": 0.324599027633667,
    "HAT_count": 7588,
    "MHHW": 0.0708272719764174,
    "MHHW_count": 7588,
    "MHW": 0.063712598749464611,
    "MHW_count": 10991,
    "MSL": 4.5461604193581258E-06,
    "MSL_count": 184104,
    "MTL": -0.0060516479537071014,
    "MTL_count": 7476,
    "MLW": -0.062668664211379954,
    "MLW_count": 10988,
    "MLLW": -0.10283579934941266,
    "MLLW_count": 7559,
    "LAT": -0.33327880501747131,
    "LAT_count": 7559
  },
  {
    "index": 58,
    "name": "socorro-090-mex-uhslc_fd",
    "Lat": 18.733,
    "Lon": -111.017,
    "HAT": 0.91047447919845581,
    "HAT_count": 7641,
    "MHHW": 0.52824997373311944,
    "MHHW_count": 7641,
    "MHW": 0.40520209704248006,
    "MHW_count": 14564,
    "MSL": -9.7200127591326E-06,
    "MSL_count": 184104,
    "MTL": 0.00044170731370279833,
    "MTL_count": 7612,
    "MLW": -0.40307741123524227,
    "MLW_count": 14562,
    "MLLW": -0.53534821751905581,
    "MLLW_count": 7642,
    "LAT": -1.0095536708831787,
    "LAT_count": 7642
  },
  {
    "index": 59,
    "name": "salvador_uscgs-708-bra-uhslc_fd",
    "Lat": -12.967,
    "Lon": -38.517,
    "HAT": 1.4472622871398926,
    "HAT_count": 7671,
    "MHHW": 0.85565028052809589,
    "MHHW_count": 7671,
    "MHW": 0.83244222547351476,
    "MHW_count": 14821,
    "MSL": -4.3407505149393984E-06,
    "MSL_count": 184104,
    "MTL": 0.00381406895048703,
    "MTL_count": 7671,
    "MLW": -0.82884324537275933,
    "MLW_count": 14820,
    "MLLW": -0.89401625298627,
    "MLLW_count": 7671,
    "LAT": -1.4238061904907227,
    "LAT_count": 7671
  },
  {
    "index": 60,
    "name": "manzanillo-395-mex-uhslc_fd",
    "Lat": 19.05,
    "Lon": -104.333,
    "HAT": 0.65257209539413452,
    "HAT_count": 7671,
    "MHHW": 0.32352238826673679,
    "MHHW_count": 7671,
    "MHW": 0.25847739517670587,
    "MHW_count": 14151,
    "MSL": -1.4577144144256877E-06,
    "MSL_count": 184104,
    "MTL": 0.00521737572002881,
    "MTL_count": 7626,
    "MLW": -0.24490190315734733,
    "MLW_count": 14151,
    "MLLW": -0.38343218201700108,
    "MLLW_count": 7626,
    "LAT": -0.79572993516922,
    "LAT_count": 7626
  },
  {
    "index": 61,
    "name": "kitsilano-7707-can-meds",
    "Lat": 49.28,
    "Lon": -123.14,
    "HAT": 2.1307117938995361,
    "HAT_count": 7670,
    "MHHW": 1.3634335624522165,
    "MHHW_count": 7670,
    "MHW": 1.0947617501046336,
    "MHW_count": 14776,
    "MSL": -2.6331508674382319E-05,
    "MSL_count": 184104,
    "MTL": 0.047034587239302671,
    "MTL_count": 7670,
    "MLW": -1.0038064424801383,
    "MLW_count": 14777,
    "MLLW": -1.8174713088471208,
    "MLLW_count": 7671,
    "LAT": -3.134666919708252,
    "LAT_count": 7671
  },
  {
    "index": 62,
    "name": "charchanga-138a-bgd-uhslc_rq",
    "Lat": 22.217,
    "Lon": 91.05,
    "HAT": 2.2249865531921387,
    "HAT_count": 7671,
    "MHHW": 1.1003999474449988,
    "MHHW_count": 7671,
    "MHW": 0.97245359885212312,
    "MHW_count": 14821,
    "MSL": -0.0001243331134417646,
    "MSL_count": 184104,
    "MTL": -0.085058003288561682,
    "MTL_count": 7671,
    "MLW": -1.1377083769206491,
    "MLW_count": 14821,
    "MLLW": -1.1740431020420232,
    "MLLW_count": 7671,
    "LAT": -2.1091587543487549,
    "LAT_count": 7671
  },
  {
    "index": 63,
    "name": "minamitorishima-049-jpn-uhslc_fd",
    "Lat": 24.3,
    "Lon": 153.967,
    "HAT": 0.5237852931022644,
    "HAT_count": 7572,
    "MHHW": 0.18317827120793973,
    "MHHW_count": 7572,
    "MHW": 0.11947037857710563,
    "MHW_count": 12949,
    "MSL": 5.6082868446312965E-06,
    "MSL_count": 184104,
    "MTL": 0.0016966078784462582,
    "MTL_count": 7542,
    "MLW": -0.1219062685505741,
    "MLW_count": 12950,
    "MLLW": -0.1743652106732744,
    "MLLW_count": 7641,
    "LAT": -0.49930071830749512,
    "LAT_count": 7641
  },
  {
    "index": 64,
    "name": "settlement_point-257a-bhs-uhslc_rq",
    "Lat": 26.71,
    "Lon": -78.997,
    "HAT": 0.76114696264266968,
    "HAT_count": 7671,
    "MHHW": 0.47903930210232687,
    "MHHW_count": 7671,
    "MHW": 0.41194786023487084,
    "MHW_count": 14819,
    "MSL": -7.3783325212662223E-06,
    "MSL_count": 184104,
    "MTL": -0.0021003599008333641,
    "MTL_count": 7671,
    "MLW": -0.41606875824227008,
    "MLW_count": 14823,
    "MLLW": -0.43874383600737804,
    "MLLW_count": 7671,
    "LAT": -0.68663722276687622,
    "LAT_count": 7671
  },
  {
    "index": 65,
    "name": "gomeratg-gom-esp-cmems",
    "Lat": 28.0,
    "Lon": -17.0,
    "HAT": 1.1636165380477905,
    "HAT_count": 7671,
    "MHHW": 0.67390701744286341,
    "MHHW_count": 7671,
    "MHW": 0.616105828841168,
    "MHW_count": 14821,
    "MSL": 5.4905806054768569E-06,
    "MSL_count": 184104,
    "MTL": -0.00097451474517098449,
    "MTL_count": 7671,
    "MLW": -0.614458232691764,
    "MLW_count": 14821,
    "MLLW": -0.64171793513372011,
    "MLLW_count": 7671,
    "LAT": -1.0989837646484375,
    "LAT_count": 7671
  },
  {
    "index": 66,
    "name": "las_palmas-217a-esp-uhslc_rq",
    "Lat": 28.1,
    "Lon": -15.4,
    "HAT": 1.4006116390228272,
    "HAT_count": 7671,
    "MHHW": 0.84806841584278236,
    "MHHW_count": 7671,
    "MHW": 0.78121069899720785,
    "MHW_count": 14821,
    "MSL": 8.14348610624668E-06,
    "MSL_count": 184104,
    "MTL": 0.0015867485212377357,
    "MTL_count": 7671,
    "MLW": -0.77240375644936932,
    "MLW_count": 14822,
    "MLLW": -0.79917721146905363,
    "MLLW_count": 7671,
    "LAT": -1.3112055063247681,
    "LAT_count": 7671
  },
  {
    "index": 67,
    "name": "pluz-pluz-esp-ieo",
    "Lat": 28.1467,
    "Lon": -15.4076,
    "HAT": 1.4299553632736206,
    "HAT_count": 7671,
    "MHHW": 0.85631666805004147,
    "MHHW_count": 7671,
    "MHW": 0.79165440331126591,
    "MHW_count": 14822,
    "MSL": 2.2829918117223044E-06,
    "MSL_count": 184104,
    "MTL": 0.00033607635023343875,
    "MTL_count": 7671,
    "MLW": -0.78716681494900709,
    "MLW_count": 14822,
    "MLLW": -0.81503858596276868,
    "MLLW_count": 7671,
    "LAT": -1.3440861701965332,
    "LAT_count": 7671
  },
  {
    "index": 68,
    "name": "las_palmas-217-esp-uhslc_fd",
    "Lat": 28.148,
    "Lon": -15.407,
    "HAT": 1.4362454414367676,
    "HAT_count": 7671,
    "MHHW": 0.85581377771792422,
    "MHHW_count": 7671,
    "MHW": 0.7913569880053869,
    "MHW_count": 14821,
    "MSL": 2.6482056374775143E-06,
    "MSL_count": 184104,
    "MTL": 0.00090010118938790428,
    "MTL_count": 7671,
    "MLW": -0.78568304363789465,
    "MLW_count": 14822,
    "MLLW": -0.81324829080163574,
    "MLLW_count": 7671,
    "LAT": -1.3440742492675781,
    "LAT_count": 7671
  },
  {
    "index": 69,
    "name": "scruz_d_palma-206a-esp-uhslc_rq",
    "Lat": 28.683,
    "Lon": -17.75,
    "HAT": 1.288753867149353,
    "HAT_count": 7671,
    "MHHW": 0.7199545937071038,
    "MHHW_count": 7671,
    "MHW": 0.66033380549159459,
    "MHW_count": 14819,
    "MSL": -3.57288198761439E-06,
    "MSL_count": 184104,
    "MTL": 0.0053659326072358366,
    "MTL_count": 7671,
    "MLW": -0.64647157519510834,
    "MLW_count": 14821,
    "MLLW": -0.67221172379866179,
    "MLLW_count": 7671,
    "LAT": -1.2053313255310059,
    "LAT_count": 7671
  },
  {
    "index": 70,
    "name": "parksluis-parkss-nld-rws",
    "Lat": 51.90654,
    "Lon": 4.46445,
    "HAT": 1.4390970468521118,
    "HAT_count": 7671,
    "MHHW": 0.96048300578003365,
    "MHHW_count": 7671,
    "MHW": 0.71353471897022913,
    "MHW_count": 17036,
    "MSL": -1.0796654388186591E-05,
    "MSL_count": 184104,
    "MTL": 0.070305455008602927,
    "MTL_count": 7671,
    "MLW": -0.61391433843096288,
    "MLW_count": 17039,
    "MLLW": -0.69930708064527591,
    "MLLW_count": 7671,
    "LAT": -1.0333733558654785,
    "LAT_count": 7671
  },
  {
    "index": 71,
    "name": "aburatsu-354-jpn-uhslc_fd",
    "Lat": 31.567,
    "Lon": 131.417,
    "HAT": 1.1394164562225342,
    "HAT_count": 7671,
    "MHHW": 0.62298080902544217,
    "MHHW_count": 7671,
    "MHW": 0.5848605498056263,
    "MHW_count": 14822,
    "MSL": -3.161007965015796E-05,
    "MSL_count": 184104,
    "MTL": 0.013599786823905592,
    "MTL_count": 7671,
    "MLW": -0.56224980102307254,
    "MLW_count": 14823,
    "MLLW": -0.8124378796852858,
    "MLLW_count": 7671,
    "LAT": -1.4326304197311401,
    "LAT_count": 7671
  },
  {
    "index": 72,
    "name": "aburatsu-354a-jpn-uhslc_rq",
    "Lat": 31.583,
    "Lon": 131.417,
    "HAT": 1.1356408596038818,
    "HAT_count": 7671,
    "MHHW": 0.62341289114138554,
    "MHHW_count": 7671,
    "MHW": 0.58587048357776617,
    "MHW_count": 14822,
    "MSL": -3.1607051926052668E-05,
    "MSL_count": 184104,
    "MTL": 0.013515562132309778,
    "MTL_count": 7671,
    "MLW": -0.56342808399526634,
    "MLW_count": 14823,
    "MLLW": -0.81369217417297957,
    "MLLW_count": 7671,
    "LAT": -1.4364746809005737,
    "LAT_count": 7671
  },
  {
    "index": 73,
    "name": "noto-ma80-jpn-jodc_jma",
    "Lat": 37.5008,
    "Lon": 137.1553,
    "HAT": 0.30815497040748596,
    "HAT_count": 7653,
    "MHHW": 0.098984934037771144,
    "MHHW_count": 7653,
    "MHW": 0.076142616077244624,
    "MHW_count": 13852,
    "MSL": -8.3837419150745054E-06,
    "MSL_count": 184104,
    "MTL": 0.00245171702273812,
    "MTL_count": 7642,
    "MLW": -0.069318060557419736,
    "MLW_count": 13851,
    "MLLW": -0.12335496869322389,
    "MLLW_count": 7660,
    "LAT": -0.34637343883514404,
    "LAT_count": 7660
  },
  {
    "index": 74,
    "name": "saguntotg-sag-esp-cmems",
    "Lat": 39.634,
    "Lon": -0.206,
    "HAT": 0.17035730183124542,
    "HAT_count": 7588,
    "MHHW": 0.057333233921696619,
    "MHHW_count": 7588,
    "MHW": 0.03720242750358458,
    "MHW_count": 11581,
    "MSL": -7.1781197540449353E-06,
    "MSL_count": 184104,
    "MTL": 0.0017981995243508619,
    "MTL_count": 7477,
    "MLW": -0.038240004344856783,
    "MLW_count": 11585,
    "MLLW": -0.049885040541486826,
    "MLLW_count": 7560,
    "LAT": -0.17313739657402039,
    "LAT_count": 7560
  },
  {
    "index": 75,
    "name": "port_sonara-816-cmr-uhslc_fd",
    "Lat": 4.217,
    "Lon": 9.133,
    "HAT": 1.1832104921340942,
    "HAT_count": 7671,
    "MHHW": 0.67321738160747446,
    "MHHW_count": 7671,
    "MHW": 0.61294859144175651,
    "MHW_count": 14822,
    "MSL": -1.0626849667061504E-05,
    "MSL_count": 184104,
    "MTL": -0.02194085175591,
    "MTL_count": 7671,
    "MLW": -0.66132148573942728,
    "MLW_count": 14823,
    "MLLW": -0.76269265718728,
    "MLLW_count": 7671,
    "LAT": -1.2041864395141602,
    "LAT_count": 7671
  },
  {
    "index": 76,
    "name": "tawau-385a-mys-uhslc_rq",
    "Lat": 4.233,
    "Lon": 117.883,
    "HAT": 1.8258030414581299,
    "HAT_count": 7671,
    "MHHW": 1.1576815402433189,
    "MHHW_count": 7671,
    "MHW": 0.93231428885064171,
    "MHW_count": 14821,
    "MSL": 1.3295732818225558E-05,
    "MSL_count": 184104,
    "MTL": -0.058013342570048754,
    "MTL_count": 7671,
    "MLW": -1.0372176002744991,
    "MLW_count": 14821,
    "MLLW": -1.0843024205024536,
    "MLLW_count": 7671,
    "LAT": -1.8407454490661621,
    "LAT_count": 7671
  },
  {
    "index": 77,
    "name": "arichat-580-can-meds",
    "Lat": 45.52,
    "Lon": -61.03,
    "HAT": 1.029015064239502,
    "HAT_count": 7671,
    "MHHW": 0.66714765151481614,
    "MHHW_count": 7671,
    "MHW": 0.59998778906951222,
    "MHW_count": 14820,
    "MSL": 1.9135323010194183E-05,
    "MSL_count": 184104,
    "MTL": 0.006227329248066381,
    "MTL_count": 7671,
    "MLW": -0.5853461425461407,
    "MLW_count": 14822,
    "MLLW": -0.60857295226186747,
    "MLLW_count": 7671,
    "LAT": -0.99459350109100342,
    "LAT_count": 7671
  },
  {
    "index": 78,
    "name": "false_bay_bc-7982-can-meds",
    "Lat": 49.48,
    "Lon": -124.35,
    "HAT": 2.2657854557037354,
    "HAT_count": 7670,
    "MHHW": 1.4246014837100325,
    "MHHW_count": 7670,
    "MHW": 1.1424065911939552,
    "MHW_count": 14784,
    "MSL": -2.0214951888250621E-06,
    "MSL_count": 184104,
    "MTL": 0.044745065343857554,
    "MTL_count": 7670,
    "MLW": -1.0563418557453002,
    "MLW_count": 14787,
    "MLLW": -1.8809048023421888,
    "MLLW_count": 7671,
    "LAT": -3.2978067398071289,
    "LAT_count": 7671
  },
  {
    "index": 79,
    "name": "meulaboh-914-idn-uhslc_fd",
    "Lat": 5.128,
    "Lon": 96.132,
    "HAT": 0.50783693790435791,
    "HAT_count": 7671,
    "MHHW": 0.25651523792834652,
    "MHHW_count": 7671,
    "MHW": 0.17797604119025709,
    "MHW_count": 14808,
    "MSL": 8.0972571787726887E-06,
    "MSL_count": 184104,
    "MTL": -0.0025363952588290132,
    "MTL_count": 7671,
    "MLW": -0.18382792863573366,
    "MLW_count": 14805,
    "MLLW": -0.21055526610863534,
    "MLLW_count": 7671,
    "LAT": -0.40169575810432434,
    "LAT_count": 7671
  },
  {
    "index": 80,
    "name": "ilesdusaluttg_60minute-ile-fra-cmems",
    "Lat": 5.25,
    "Lon": -52.62,
    "HAT": 1.4854569435119629,
    "HAT_count": 7671,
    "MHHW": 0.93788674487165979,
    "MHHW_count": 7671,
    "MHW": 0.87398423387112245,
    "MHW_count": 14820,
    "MSL": -1.9793329249232752E-05,
    "MSL_count": 184104,
    "MTL": 0.016425446034570773,
    "MTL_count": 7671,
    "MLW": -0.8465080269152554,
    "MLW_count": 14822,
    "MLLW": -0.938717262139766,
    "MLLW_count": 7671,
    "LAT": -1.4394146203994751,
    "LAT_count": 7671
  },
  {
    "index": 81,
    "name": "arunplatformtg-aru-gbr-cmems",
    "Lat": 50.76983,
    "Lon": -0.49215,
    "HAT": 3.2325046062469482,
    "HAT_count": 7671,
    "MHHW": 2.1698911267967333,
    "MHHW_count": 7671,
    "MHW": 2.0939796903775085,
    "MHW_count": 14821,
    "MSL": 3.4321280471116633E-05,
    "MSL_count": 184104,
    "MTL": 0.047596574092540166,
    "MTL_count": 7671,
    "MLW": -1.9849888924749328,
    "MLW_count": 14821,
    "MLLW": -2.0313841793484615,
    "MLLW_count": 7671,
    "LAT": -3.0840840339660645,
    "LAT_count": 7671
  },
  {
    "index": 82,
    "name": "arun_platform-arn-gbr-cco",
    "Lat": 50.76983,
    "Lon": -0.49215,
    "HAT": 3.2345860004425049,
    "HAT_count": 7671,
    "MHHW": 2.1699051287832822,
    "MHHW_count": 7671,
    "MHW": 2.0938097892896863,
    "MHW_count": 14822,
    "MSL": 3.3814902572157236E-05,
    "MSL_count": 184104,
    "MTL": 0.047978552675659494,
    "MTL_count": 7671,
    "MLW": -1.9842234154991369,
    "MLW_count": 14821,
    "MLLW": -2.0306987190025909,
    "MLLW_count": 7671,
    "LAT": -3.0817580223083496,
    "LAT_count": 7671
  },
  {
    "index": 83,
    "name": "vlaktevdraantg-vla-nld-cmems",
    "Lat": 51.5046,
    "Lon": 3.2422,
    "HAT": 2.5601153373718262,
    "HAT_count": 7671,
    "MHHW": 1.7750327527763914,
    "MHHW_count": 7671,
    "MHW": 1.7282005279974737,
    "MHW_count": 14820,
    "MSL": -1.6865676019906678E-05,
    "MSL_count": 184104,
    "MTL": 0.13199319450012861,
    "MTL_count": 7671,
    "MLW": -1.4634560068327727,
    "MLW_count": 14820,
    "MLLW": -1.5645874462853726,
    "MLLW_count": 7671,
    "LAT": -2.228956937789917,
    "LAT_count": 7671
  },
  {
    "index": 84,
    "name": "oosterschelde_14-oostsde14-nld-rws",
    "Lat": 51.72154,
    "Lon": 3.67592,
    "HAT": 2.0949516296386719,
    "HAT_count": 7671,
    "MHHW": 1.4114183737803991,
    "MHHW_count": 7671,
    "MHW": 1.3653962987591002,
    "MHW_count": 14825,
    "MSL": -3.3428915420434462E-05,
    "MSL_count": 184104,
    "MTL": 0.13574844420769491,
    "MTL_count": 7671,
    "MLW": -1.0981465199891651,
    "MLW_count": 14826,
    "MLLW": -1.2055581429296516,
    "MLLW_count": 7671,
    "LAT": -1.6970608234405518,
    "LAT_count": 7671
  },
  {
    "index": 85,
    "name": "brouwershavensche_gat_08-brouwhvsgt08-nld-rws_hist",
    "Lat": 51.75075,
    "Lon": 3.81148,
    "HAT": 2.0496790409088135,
    "HAT_count": 7671,
    "MHHW": 1.4055257017695442,
    "MHHW_count": 7671,
    "MHW": 1.0979265233390656,
    "MHW_count": 16760,
    "MSL": -2.4328889959447152E-05,
    "MSL_count": 184104,
    "MTL": 0.0841479775881518,
    "MTL_count": 7671,
    "MLW": -0.99909675179638691,
    "MLW_count": 16758,
    "MLLW": -1.1260870959220755,
    "MLLW_count": 7671,
    "LAT": -1.5834136009216309,
    "LAT_count": 7671
  },
  {
    "index": 86,
    "name": "brouwershavensche_gat_08-brouwhvsgt08-nld-rws",
    "Lat": 51.75076,
    "Lon": 3.81148,
    "HAT": 1.9517797231674194,
    "HAT_count": 7671,
    "MHHW": 1.3151956836817675,
    "MHHW_count": 7671,
    "MHW": 1.2095176182043044,
    "MHW_count": 15231,
    "MSL": -1.8515385369281884E-05,
    "MSL_count": 184104,
    "MTL": 0.12619274441421555,
    "MTL_count": 7671,
    "MLW": -0.97482854992626677,
    "MLW_count": 15233,
    "MLLW": -1.0865330499599444,
    "MLLW_count": 7671,
    "LAT": -1.5453132390975952,
    "LAT_count": 7671
  },
  {
    "index": 87,
    "name": "brouwershavensegat8tg-bro-nld-cmems",
    "Lat": 51.75169,
    "Lon": 3.81169,
    "HAT": 2.0197899341583252,
    "HAT_count": 7671,
    "MHHW": 1.3869899402788606,
    "MHHW_count": 7671,
    "MHW": 1.1209098638406869,
    "MHW_count": 16470,
    "MSL": -2.1810336631954194E-05,
    "MSL_count": 184104,
    "MTL": 0.092435004528038711,
    "MTL_count": 7671,
    "MLW": -0.99565122251526839,
    "MLW_count": 16469,
    "MLLW": -1.1238758141455851,
    "MLLW_count": 7671,
    "LAT": -1.6002917289733887,
    "LAT_count": 7671
  },
  {
    "index": 88,
    "name": "brouwershavensche_gat_punt_02-brouwhvsgt02-nld-rws",
    "Lat": 51.76763,
    "Lon": 3.61712,
    "HAT": 1.8591665029525757,
    "HAT_count": 7671,
    "MHHW": 1.2915820837751266,
    "MHHW_count": 7671,
    "MHW": 1.2342732719670571,
    "MHW_count": 14884,
    "MSL": -2.7586530522491392E-05,
    "MSL_count": 184104,
    "MTL": 0.13197895506471255,
    "MTL_count": 7671,
    "MLW": -0.97512242916666325,
    "MLW_count": 14883,
    "MLLW": -1.0837710497510151,
    "MLLW_count": 7671,
    "LAT": -1.5168453454971314,
    "LAT_count": 7671
  },
  {
    "index": 89,
    "name": "katwijk_paal-katwpl-nld-rws_hist",
    "Lat": 52.20447,
    "Lon": 4.36244,
    "HAT": 1.5619313716888428,
    "HAT_count": 7671,
    "MHHW": 1.01838714885146,
    "MHHW_count": 7671,
    "MHW": 0.79181400054021123,
    "MHW_count": 16850,
    "MSL": -1.6142228021623659E-05,
    "MSL_count": 184104,
    "MTL": 0.077970091954971815,
    "MTL_count": 7671,
    "MLW": -0.65864111689350091,
    "MLW_count": 16848,
    "MLLW": -0.76188472425389087,
    "MLLW_count": 7671,
    "LAT": -1.1961181163787842,
    "LAT_count": 7671
  },
  {
    "index": 90,
    "name": "petten-pettn-nld-rws_hist",
    "Lat": 52.78839,
    "Lon": 4.66486,
    "HAT": 1.3216779232025147,
    "HAT_count": 7671,
    "MHHW": 0.83333445243754023,
    "MHHW_count": 7671,
    "MHW": 0.62901298510336789,
    "MHW_count": 19558,
    "MSL": -6.7852279442897374E-06,
    "MSL_count": 184104,
    "MTL": 0.028694424681778245,
    "MTL_count": 7671,
    "MLW": -0.53496687941268417,
    "MLW_count": 19560,
    "MLLW": -0.81939321248585106,
    "MLLW_count": 7671,
    "LAT": -1.3497236967086792,
    "LAT_count": 7671
  },
  {
    "index": 91,
    "name": "texel_noordzee-texnze-nld-rws_hist",
    "Lat": 53.12061,
    "Lon": 4.73319,
    "HAT": 1.2229701280593872,
    "HAT_count": 7671,
    "MHHW": 0.81626317923296821,
    "MHHW_count": 7671,
    "MHW": 0.68605735744248386,
    "MHW_count": 21610,
    "MSL": -4.3634533440538891E-06,
    "MSL_count": 184104,
    "MTL": 0.080580143374580859,
    "MTL_count": 7671,
    "MLW": -0.4264939173469936,
    "MLW_count": 21610,
    "MLLW": -0.92653944355275042,
    "MLLW_count": 7671,
    "LAT": -1.4763613939285278,
    "LAT_count": 7671
  },
  {
    "index": 92,
    "name": "texel_noordzee-texnze-nld-rws",
    "Lat": 53.12061,
    "Lon": 4.73319,
    "HAT": 1.1767213344573975,
    "HAT_count": 7671,
    "MHHW": 0.77287932689210737,
    "MHHW_count": 7671,
    "MHW": 0.67206971704516338,
    "MHW_count": 17067,
    "MSL": -1.2026337687030051E-05,
    "MSL_count": 184104,
    "MTL": -0.015629225986774214,
    "MTL_count": 7671,
    "MLW": -0.63976369520483556,
    "MLW_count": 17069,
    "MLLW": -0.86514020553158588,
    "MLLW_count": 7671,
    "LAT": -1.3709534406661987,
    "LAT_count": 7671
  },
  {
    "index": 93,
    "name": "eierland-eield-nld-rws_hist",
    "Lat": 53.18969,
    "Lon": 4.79813,
    "HAT": 1.2972962856292725,
    "HAT_count": 7671,
    "MHHW": 0.84771919262143469,
    "MHHW_count": 7671,
    "MHW": 0.74038627326205675,
    "MHW_count": 16860,
    "MSL": 2.453342638472747E-06,
    "MSL_count": 184104,
    "MTL": -0.020141841603398405,
    "MTL_count": 7671,
    "MLW": -0.71218652876272837,
    "MLW_count": 16861,
    "MLLW": -0.93735439730986614,
    "MLLW_count": 7671,
    "LAT": -1.4441883563995361,
    "LAT_count": 7671
  },
  {
    "index": 94,
    "name": "k13a_platform-k13apfm-nld-rws",
    "Lat": 53.217,
    "Lon": 3.21889,
    "HAT": 1.0800553560256958,
    "HAT_count": 7671,
    "MHHW": 0.64402872378575016,
    "MHHW_count": 7671,
    "MHW": 0.544668899999376,
    "MHW_count": 14820,
    "MSL": -3.5798508519495285E-06,
    "MSL_count": 184104,
    "MTL": -0.018884016065651325,
    "MTL_count": 7671,
    "MLW": -0.58443877636762931,
    "MLW_count": 14820,
    "MLLW": -0.62874711348512868,
    "MLLW_count": 7671,
    "LAT": -1.0388683080673218,
    "LAT_count": 7671
  },
  {
    "index": 95,
    "name": "k13atg-k13-nld-cmems",
    "Lat": 53.218,
    "Lon": 3.219,
    "HAT": 1.1479822397232056,
    "HAT_count": 7671,
    "MHHW": 0.664436611692064,
    "MHHW_count": 7671,
    "MHW": 0.56541522683088408,
    "MHW_count": 14822,
    "MSL": -8.409412258029828E-06,
    "MSL_count": 184104,
    "MTL": -0.019563920079932677,
    "MTL_count": 7671,
    "MLW": -0.60773767296758452,
    "MLW_count": 14821,
    "MLLW": -0.65415983020155954,
    "MLLW_count": 7671,
    "LAT": -1.0795313119888306,
    "LAT_count": 7671
  },
  {
    "index": 96,
    "name": "stortemelk-stortmk-nld-rws_hist",
    "Lat": 53.33899,
    "Lon": 5.05531,
    "HAT": 1.4747201204299927,
    "HAT_count": 7671,
    "MHHW": 0.89250963575105569,
    "MHHW_count": 7671,
    "MHW": 0.78814210252691708,
    "MHW_count": 14823,
    "MSL": 2.3435102644167351E-05,
    "MSL_count": 184104,
    "MTL": -0.057297502642700747,
    "MTL_count": 7671,
    "MLW": -0.89960925019257076,
    "MLW_count": 14822,
    "MLLW": -0.93203630305272067,
    "MLLW_count": 7671,
    "LAT": -1.4011732339859009,
    "LAT_count": 7671
  },
  {
    "index": 97,
    "name": "terschelling_noordzee-terslnze-nld-rws_hist",
    "Lat": 53.44248,
    "Lon": 5.33303,
    "HAT": 1.3990311622619629,
    "HAT_count": 7671,
    "MHHW": 0.96150023431234666,
    "MHHW_count": 7671,
    "MHW": 0.86301958114140009,
    "MHW_count": 14821,
    "MSL": 1.2691522084290421E-05,
    "MSL_count": 184104,
    "MTL": -0.086878948850918181,
    "MTL_count": 7671,
    "MLW": -1.0338944088707343,
    "MLW_count": 14822,
    "MLLW": -1.0656107815081846,
    "MLLW_count": 7671,
    "LAT": -1.6340821981430054,
    "LAT_count": 7671
  },
  {
    "index": 98,
    "name": "terschelling_noordzee-terslnze-nld-rws",
    "Lat": 53.44249,
    "Lon": 5.33303,
    "HAT": 1.3833578824996948,
    "HAT_count": 7671,
    "MHHW": 0.93418357203594482,
    "MHHW_count": 7671,
    "MHW": 0.83552477115417212,
    "MHW_count": 14821,
    "MSL": 1.1192386082955875E-06,
    "MSL_count": 184104,
    "MTL": -0.0737311651055507,
    "MTL_count": 7671,
    "MLW": -0.97877954506766307,
    "MLW_count": 14822,
    "MLLW": -1.0113900909133535,
    "MLLW_count": 7671,
    "LAT": -1.6081467866897583,
    "LAT_count": 7671
  },
  {
    "index": 99,
    "name": "wierumergronden-wiermgdn-nld-rws_hist",
    "Lat": 53.51582,
    "Lon": 5.95826,
    "HAT": 1.3984861373901367,
    "HAT_count": 7671,
    "MHHW": 0.98693690255231858,
    "MHHW_count": 7671,
    "MHW": 0.89164301558646231,
    "MHW_count": 14840,
    "MSL": 2.2908448520202019E-05,
    "MSL_count": 184104,
    "MTL": -0.098073827944860956,
    "MTL_count": 7671,
    "MLW": -1.0827388186260041,
    "MLW_count": 14839,
    "MLLW": -1.1196672562055707,
    "MLLW_count": 7671,
    "LAT": -1.701096773147583,
    "LAT_count": 7671
  },
  {
    "index": 100,
    "name": "wierumergronden-wiermgdn-nld-rws",
    "Lat": 53.51583,
    "Lon": 5.95826,
    "HAT": 1.4052480459213257,
    "HAT_count": 7671,
    "MHHW": 0.96585022430347811,
    "MHHW_count": 7671,
    "MHW": 0.87203543100521153,
    "MHW_count": 14820,
    "MSL": 1.1785353415510127E-05,
    "MSL_count": 184104,
    "MTL": -0.084548947407132036,
    "MTL_count": 7671,
    "MLW": -1.0362367275095639,
    "MLW_count": 14821,
    "MLLW": -1.0722073918059634,
    "MLLW_count": 7671,
    "LAT": -1.6303983926773071,
    "LAT_count": 7671
  },
  {
    "index": 101,
    "name": "wierumergrondentg-wie-nld-cmems",
    "Lat": 53.517,
    "Lon": 5.9588,
    "HAT": 1.3635371923446655,
    "HAT_count": 7671,
    "MHHW": 0.977352433313588,
    "MHHW_count": 7671,
    "MHW": 0.88154527434283814,
    "MHW_count": 14835,
    "MSL": 2.6148741110428327E-05,
    "MSL_count": 184104,
    "MTL": -0.093872625688419226,
    "MTL_count": 7671,
    "MLW": -1.0644934124785077,
    "MLW_count": 14835,
    "MLLW": -1.1010343478852962,
    "MLLW_count": 7671,
    "LAT": -1.6965177059173584,
    "LAT_count": 7671
  },
  {
    "index": 102,
    "name": "l91tg-l91-nld-cmems",
    "Lat": 53.566,
    "Lon": 4.87,
    "HAT": 1.1854784488677979,
    "HAT_count": 7671,
    "MHHW": 0.78923847759318555,
    "MHHW_count": 7671,
    "MHW": 0.70102128202684,
    "MHW_count": 14819,
    "MSL": -2.65342595289825E-06,
    "MSL_count": 184104,
    "MTL": -0.057134124498018066,
    "MTL_count": 7671,
    "MLW": -0.815175098172727,
    "MLW_count": 14820,
    "MLLW": -0.84941794143523719,
    "MLLW_count": 7671,
    "LAT": -1.329085111618042,
    "LAT_count": 7671
  },
  {
    "index": 103,
    "name": "platform_j6-j6-nld-rws",
    "Lat": 53.81663,
    "Lon": 2.95001,
    "HAT": 1.2650583982467651,
    "HAT_count": 7671,
    "MHHW": 0.79909690007083711,
    "MHHW_count": 7671,
    "MHW": 0.71316787329678466,
    "MHW_count": 14822,
    "MSL": 5.4075738173049191E-06,
    "MSL_count": 184104,
    "MTL": 0.0031114530608421236,
    "MTL_count": 7671,
    "MLW": -0.70979305140693216,
    "MLW_count": 14822,
    "MLLW": -0.76734130388520838,
    "MLLW_count": 7671,
    "LAT": -1.2652701139450073,
    "LAT_count": 7671
  },
  {
    "index": 104,
    "name": "j61tg-j61-nld-cmems",
    "Lat": 53.82325,
    "Lon": 2.9438,
    "HAT": 1.3221386671066284,
    "HAT_count": 7671,
    "MHHW": 0.82331524738244755,
    "MHHW_count": 7671,
    "MHW": 0.73791816198994753,
    "MHW_count": 14820,
    "MSL": -4.4679522401595478E-06,
    "MSL_count": 184104,
    "MTL": 0.0036434803998351651,
    "MTL_count": 7671,
    "MLW": -0.73448145006723109,
    "MLW_count": 14822,
    "MLLW": -0.79517713120747946,
    "MLLW_count": 7671,
    "LAT": -1.2910672426223755,
    "LAT_count": 7671
  },
  {
    "index": 105,
    "name": "platform_f16_a-f16-nld-rws",
    "Lat": 54.11667,
    "Lon": 4.01222,
    "HAT": 0.90040028095245361,
    "HAT_count": 7671,
    "MHHW": 0.58360908372883,
    "MHHW_count": 7671,
    "MHW": 0.51432088858588543,
    "MHW_count": 14821,
    "MSL": 1.027634474307419E-05,
    "MSL_count": 184104,
    "MTL": 0.0068970652049385479,
    "MTL_count": 7671,
    "MLW": -0.50133381005876521,
    "MLW_count": 14821,
    "MLLW": -0.53628507738838516,
    "MLLW_count": 7671,
    "LAT": -0.91275113821029663,
    "LAT_count": 7671
  },
  {
    "index": 106,
    "name": "d151tg-d15-nld-cmems",
    "Lat": 54.31665,
    "Lon": 2.93335,
    "HAT": 1.1977565288543701,
    "HAT_count": 7671,
    "MHHW": 0.75007920059056288,
    "MHHW_count": 7671,
    "MHW": 0.686311908521815,
    "MHW_count": 14818,
    "MSL": -4.3125983277606987E-06,
    "MSL_count": 184104,
    "MTL": 0.028859730895236545,
    "MTL_count": 7671,
    "MLW": -0.63251868180356952,
    "MLW_count": 14819,
    "MLLW": -0.6820668768244047,
    "MLLW_count": 7671,
    "LAT": -1.1159161329269409,
    "LAT_count": 7671
  },
  {
    "index": 107,
    "name": "ystad-yst-swe-cmems",
    "Lat": 55.4167,
    "Lon": 13.8167,
    "HAT": 0.11011050641536713,
    "HAT_count": 7594,
    "MHHW": 0.02844683370879602,
    "MHHW_count": 7594,
    "MHW": 0.018599344828796313,
    "MHW_count": 12276,
    "MSL": 4.8032975773033769E-06,
    "MSL_count": 184104,
    "MTL": 0.00066257274522121443,
    "MTL_count": 7557,
    "MLW": -0.019931649375305342,
    "MLW_count": 12273,
    "MLLW": -0.028961842181151515,
    "MLLW_count": 7634,
    "LAT": -0.15404543280601502,
    "LAT_count": 7634
  },
  {
    "index": 108,
    "name": "ystad-2093-swe-smhi",
    "Lat": 55.4167,
    "Lon": 13.8167,
    "HAT": 0.11010840535163879,
    "HAT_count": 7594,
    "MHHW": 0.028446840040421955,
    "MHHW_count": 7594,
    "MHW": 0.018599493085895123,
    "MHW_count": 12276,
    "MSL": 4.8041881313719084E-06,
    "MSL_count": 184104,
    "MTL": 0.0006625849948546131,
    "MTL_count": 7557,
    "MLW": -0.019931532951367213,
    "MLW_count": 12273,
    "MLLW": -0.028961839605830535,
    "MLLW_count": 7634,
    "LAT": -0.15404658019542694,
    "LAT_count": 7634
  },
  {
    "index": 109,
    "name": "flinten7_sjov-35137-swe-smhi",
    "Lat": 55.5894,
    "Lon": 12.8445,
    "HAT": 0.13215363025665283,
    "HAT_count": 7671,
    "MHHW": 0.052860837246044609,
    "MHHW_count": 7671,
    "MHW": 0.046775822826315386,
    "MHW_count": 15120,
    "MSL": -5.6013719374041592E-07,
    "MSL_count": 184104,
    "MTL": -0.0017813464945913846,
    "MTL_count": 7671,
    "MLW": -0.050239239976988634,
    "MLW_count": 15119,
    "MLLW": -0.060708901853665814,
    "MLLW_count": 7671,
    "LAT": -0.17189992964267731,
    "LAT_count": 7671
  },
  {
    "index": 110,
    "name": "aukfield_platform-aukfpfm-nld-rws",
    "Lat": 56.39904,
    "Lon": 2.06402,
    "HAT": 0.76399832963943481,
    "HAT_count": 7671,
    "MHHW": 0.48850756536296536,
    "MHHW_count": 7671,
    "MHW": 0.45138855588559995,
    "MHW_count": 14821,
    "MSL": 3.6689943139194568E-06,
    "MSL_count": 184104,
    "MTL": 0.004259520911701095,
    "MTL_count": 7671,
    "MLW": -0.44508322451625815,
    "MLW_count": 14823,
    "MLLW": -0.4842540500310421,
    "MLLW_count": 7671,
    "LAT": -0.80977153778076172,
    "LAT_count": 7671
  },
  {
    "index": 111,
    "name": "liepaja-lie-lva-cmems",
    "Lat": 56.5333,
    "Lon": 20.9833,
    "HAT": 0.17450989782810211,
    "HAT_count": 7668,
    "MHHW": 0.012071231079871186,
    "MHHW_count": 7668,
    "MHW": 0.0084310840998601828,
    "MHW_count": 22221,
    "MSL": 1.3015775200338882E-05,
    "MSL_count": 184104,
    "MTL": -0.00048747459302439619,
    "MTL_count": 7628,
    "MLW": -0.00064058742202079209,
    "MLW_count": 22218,
    "MLLW": -0.010838600332002495,
    "MLLW_count": 7631,
    "LAT": -0.19230747222900391,
    "LAT_count": 7631
  },
  {
    "index": 112,
    "name": "nain-833-can-uhslc_fd",
    "Lat": 56.55,
    "Lon": -61.7,
    "HAT": 1.4185255765914917,
    "HAT_count": 7671,
    "MHHW": 0.8769638157954599,
    "MHHW_count": 7671,
    "MHW": 0.77599384563649343,
    "MHW_count": 14821,
    "MSL": 3.6100577837227675E-06,
    "MSL_count": 184104,
    "MTL": 0.0033988458101801167,
    "MTL_count": 7671,
    "MLW": -0.77019791799759985,
    "MLW_count": 14823,
    "MLLW": -0.80489987206807145,
    "MLLW_count": 7671,
    "LAT": -1.3705021142959595,
    "LAT_count": 7671
  },
  {
    "index": 113,
    "name": "kalmar_sjov-35105-swe-smhi",
    "Lat": 56.6713,
    "Lon": 16.3888,
    "HAT": 0.1240568608045578,
    "HAT_count": 7671,
    "MHHW": 0.01709414670533644,
    "MHHW_count": 7671,
    "MHW": 0.0084966203233857642,
    "MHW_count": 15017,
    "MSL": 1.7893954043322329E-05,
    "MSL_count": 184104,
    "MTL": 0.000627901684138289,
    "MTL_count": 7611,
    "MLW": -0.012684117997785363,
    "MLW_count": 15016,
    "MLLW": -0.020831709515573126,
    "MLLW_count": 7611,
    "LAT": -0.15169817209243774,
    "LAT_count": 7611
  },
  {
    "index": 114,
    "name": "varberg1-var-swe-cmems",
    "Lat": 57.1,
    "Lon": 12.2167,
    "HAT": 0.19041897356510162,
    "HAT_count": 7671,
    "MHHW": 0.063935358261542452,
    "MHHW_count": 7671,
    "MHW": 0.039167879997713123,
    "MHW_count": 19040,
    "MSL": -3.1584761462539432E-07,
    "MSL_count": 184104,
    "MTL": 0.0010432307408371137,
    "MTL_count": 7671,
    "MLW": -0.036720218980691471,
    "MLW_count": 19039,
    "MLLW": -0.058476938663391063,
    "MLLW_count": 7671,
    "LAT": -0.2441849559545517,
    "LAT_count": 7671
  },
  {
    "index": 115,
    "name": "varberg-2104-swe-smhi",
    "Lat": 57.1,
    "Lon": 12.2167,
    "HAT": 0.19074656069278717,
    "HAT_count": 7671,
    "MHHW": 0.0638862063685032,
    "MHHW_count": 7671,
    "MHW": 0.039253553439872024,
    "MHW_count": 18943,
    "MSL": -2.8389670034177752E-07,
    "MSL_count": 184104,
    "MTL": 0.0010399560158431021,
    "MTL_count": 7671,
    "MLW": -0.036934594006872913,
    "MLW_count": 18938,
    "MLLW": -0.058444044927148706,
    "MLLW_count": 7671,
    "LAT": -0.24432072043418884,
    "LAT_count": 7671
  },
  {
    "index": 116,
    "name": "simpevarp-sim-swe-cmems",
    "Lat": 57.4092,
    "Lon": 16.6759,
    "HAT": 0.16043838858604431,
    "HAT_count": 7664,
    "MHHW": 0.017360850730352304,
    "MHHW_count": 7664,
    "MHW": 0.0050038836491801538,
    "MHW_count": 14369,
    "MSL": 2.1528661910557968E-05,
    "MSL_count": 184104,
    "MTL": -0.00050984689289509738,
    "MTL_count": 7590,
    "MLW": -0.013637382626576758,
    "MLW_count": 14367,
    "MLLW": -0.014407528904041058,
    "MLLW_count": 7597,
    "LAT": -0.157756969332695,
    "LAT_count": 7597
  },
  {
    "index": 117,
    "name": "simpevarp_sjov-35200-swe-smhi",
    "Lat": 57.4092,
    "Lon": 16.6759,
    "HAT": 0.14283500611782074,
    "HAT_count": 7636,
    "MHHW": 0.01717251098351584,
    "MHHW_count": 7636,
    "MHW": 0.0048599947236343177,
    "MHW_count": 12519,
    "MSL": 2.3444792561412059E-05,
    "MSL_count": 184104,
    "MTL": -0.0004127287801079888,
    "MTL_count": 7556,
    "MLW": -0.015943029193919843,
    "MLW_count": 12515,
    "MLLW": -0.014440803995055733,
    "MLLW_count": 7591,
    "LAT": -0.16142700612545013,
    "LAT_count": 7591
  },
  {
    "index": 118,
    "name": "jolo-373a-phl-uhslc_rq",
    "Lat": 6.067,
    "Lon": 121.0,
    "HAT": 0.96079027652740479,
    "HAT_count": 7593,
    "MHHW": 0.49508718642265176,
    "MHHW_count": 7593,
    "MHW": 0.24927992861921722,
    "MHW_count": 13169,
    "MSL": 4.1347713013786362E-06,
    "MSL_count": 184104,
    "MTL": -0.013630961785628334,
    "MTL_count": 7593,
    "MLW": -0.29995902921997247,
    "MLW_count": 13172,
    "MLLW": -0.33598420559261694,
    "MLLW_count": 7671,
    "LAT": -0.60862499475479126,
    "LAT_count": 7671
  },
  {
    "index": 119,
    "name": "langkawi-142a-mys-uhslc_rq",
    "Lat": 6.87,
    "Lon": 99.77,
    "HAT": 1.7108322381973267,
    "HAT_count": 7671,
    "MHHW": 1.036947834709876,
    "MHHW_count": 7671,
    "MHW": 0.90002688674448084,
    "MHW_count": 14823,
    "MSL": 1.0841151379755905E-05,
    "MSL_count": 184104,
    "MTL": 0.0039319317115769662,
    "MTL_count": 7671,
    "MLW": -0.882534085380723,
    "MLW_count": 14822,
    "MLLW": -0.96232977076411141,
    "MLLW_count": 7671,
    "LAT": -1.763015627861023,
    "LAT_count": 7671
  },
  {
    "index": 120,
    "name": "pohnpei-001a-fsm-uhslc_rq",
    "Lat": 6.983,
    "Lon": 158.233,
    "HAT": 0.85036933422088623,
    "HAT_count": 7593,
    "MHHW": 0.48162911816221821,
    "MHHW_count": 7593,
    "MHW": 0.33415840343837844,
    "MHW_count": 14581,
    "MSL": -1.3623563481657633E-05,
    "MSL_count": 184104,
    "MTL": -0.0019151332102566468,
    "MTL_count": 7593,
    "MLW": -0.3432182892137533,
    "MLW_count": 14580,
    "MLLW": -0.40101414705658112,
    "MLLW_count": 7671,
    "LAT": -0.67267686128616333,
    "LAT_count": 7671
  },
  {
    "index": 121,
    "name": "rauma_ulko_petajas-134224-fin-fmi",
    "Lat": 61.13,
    "Lon": 21.43,
    "HAT": 0.16252157092094421,
    "HAT_count": 7671,
    "MHHW": 0.011773326258501674,
    "MHHW_count": 7671,
    "MHW": 0.0088532883063840613,
    "MHW_count": 14464,
    "MSL": 2.1068054690998992E-05,
    "MSL_count": 184104,
    "MTL": -0.00037099197729541261,
    "MTL_count": 7636,
    "MLW": -0.0063733581521386888,
    "MLW_count": 14465,
    "MLLW": -0.0099983563542903973,
    "MLLW_count": 7636,
    "LAT": -0.18624217808246613,
    "LAT_count": 7636
  },
  {
    "index": 122,
    "name": "rauma-rau-fin-cmems",
    "Lat": 61.1335,
    "Lon": 21.4258,
    "HAT": 0.16326363384723663,
    "HAT_count": 7671,
    "MHHW": 0.011829521199353769,
    "MHHW_count": 7671,
    "MHW": 0.0086721225427300389,
    "MHW_count": 14510,
    "MSL": 2.0994899712974183E-05,
    "MSL_count": 184104,
    "MTL": -0.00041557895203316275,
    "MTL_count": 7632,
    "MLW": -0.0065411028285500827,
    "MLW_count": 14511,
    "MLLW": -0.0099820914194253662,
    "MLLW_count": 7632,
    "LAT": -0.18604248762130737,
    "LAT_count": 7632
  },
  {
    "index": 123,
    "name": "ljusnelotsstation-lju-swe-cmems",
    "Lat": 61.2067,
    "Lon": 17.1452,
    "HAT": 0.18291288614273071,
    "HAT_count": 7669,
    "MHHW": 0.013743945875093032,
    "MHHW_count": 7669,
    "MHW": 0.0088849951735188656,
    "MHW_count": 15313,
    "MSL": 3.1317211034869117E-05,
    "MSL_count": 184104,
    "MTL": 0.00047332756475232781,
    "MTL_count": 7650,
    "MLW": -0.0088584135193652078,
    "MLW_count": 15313,
    "MLLW": -0.015605296807857156,
    "MLLW_count": 7652,
    "LAT": -0.18922588229179382,
    "LAT_count": 7652
  },
  {
    "index": 124,
    "name": "ljusne_sjov-35127-swe-smhi",
    "Lat": 61.2067,
    "Lon": 17.1452,
    "HAT": 0.13414609432220459,
    "HAT_count": 7649,
    "MHHW": 0.013616998371458255,
    "MHHW_count": 7649,
    "MHW": 0.0078015334942138264,
    "MHW_count": 13886,
    "MSL": 2.40015412858406E-05,
    "MSL_count": 184104,
    "MTL": -0.00040718953179218296,
    "MTL_count": 7521,
    "MLW": -0.011453873598303346,
    "MLW_count": 13886,
    "MLLW": -0.016327269501998545,
    "MLLW_count": 7543,
    "LAT": -0.17495471239089966,
    "LAT_count": 7543
  },
  {
    "index": 125,
    "name": "northcormoranttg-nor-gbr-cmems",
    "Lat": 61.34,
    "Lon": 1.16,
    "HAT": 0.96333909034729,
    "HAT_count": 7671,
    "MHHW": 0.606399606848739,
    "MHHW_count": 7671,
    "MHW": 0.54415900746209256,
    "MHW_count": 14823,
    "MSL": 2.9583758516220345E-05,
    "MSL_count": 184104,
    "MTL": 0.00051572066031427819,
    "MTL_count": 7671,
    "MLW": -0.53981107656169269,
    "MLW_count": 14821,
    "MLLW": -0.58650529312375133,
    "MLLW_count": 7671,
    "LAT": -1.0650551319122315,
    "LAT_count": 7671
  },
  {
    "index": 126,
    "name": "kaskinen_adskar-134251-fin-fmi",
    "Lat": 62.34,
    "Lon": 21.21,
    "HAT": 0.17569760978221893,
    "HAT_count": 7657,
    "MHHW": 0.01242766127540906,
    "MHHW_count": 7657,
    "MHW": 0.0043267488883477062,
    "MHW_count": 12652,
    "MSL": 2.2273782577813694E-05,
    "MSL_count": 184104,
    "MTL": -0.00034300378569852527,
    "MTL_count": 7569,
    "MLW": -0.010945028003559464,
    "MLW_count": 12651,
    "MLLW": -0.010570314438027183,
    "MLLW_count": 7583,
    "LAT": -0.19246006011962891,
    "LAT_count": 7583
  },
  {
    "index": 127,
    "name": "kaskinen-kas-fin-cmems",
    "Lat": 62.344,
    "Lon": 21.2148,
    "HAT": 0.17651429772377014,
    "HAT_count": 7661,
    "MHHW": 0.012482671679678344,
    "MHHW_count": 7661,
    "MHW": 0.0048257026303523218,
    "MHW_count": 12752,
    "MSL": 2.2272756593253658E-05,
    "MSL_count": 184104,
    "MTL": -0.0003223872163531537,
    "MTL_count": 7580,
    "MLW": -0.010347550771341241,
    "MLW_count": 12753,
    "MLLW": -0.010381435214486577,
    "MLLW_count": 7590,
    "LAT": -0.19221420586109161,
    "LAT_count": 7590
  },
  {
    "index": 128,
    "name": "holmsund-hol-swe-cmems",
    "Lat": 63.6555,
    "Lon": 20.341,
    "HAT": 0.17192782461643219,
    "HAT_count": 7671,
    "MHHW": 0.0061248414594023467,
    "MHHW_count": 7671,
    "MHW": 0.003415930588082869,
    "MHW_count": 15028,
    "MSL": 3.1054653844481465E-05,
    "MSL_count": 184104,
    "MTL": 3.7163911526795745E-05,
    "MTL_count": 7606,
    "MLW": -0.0048114110297506627,
    "MLW_count": 15026,
    "MLLW": -0.0070761783483000058,
    "MLLW_count": 7606,
    "LAT": -0.18511565029621124,
    "LAT_count": 7606
  },
  {
    "index": 129,
    "name": "ammassalik-297a-dnk-uhslc_rq",
    "Lat": 65.6,
    "Lon": -37.0,
    "HAT": 1.9490803480148315,
    "HAT_count": 7671,
    "MHHW": 1.1539229981270036,
    "MHHW_count": 7671,
    "MHW": 1.0403452092757408,
    "MHW_count": 14821,
    "MSL": -2.3145627409928117E-06,
    "MSL_count": 184104,
    "MTL": -0.0043361450229868845,
    "MTL_count": 7671,
    "MLW": -1.0504423029895222,
    "MLW_count": 14821,
    "MLLW": -1.1336895398647,
    "MLLW_count": 7671,
    "LAT": -1.8715223073959351,
    "LAT_count": 7671
  },
  {
    "index": 130,
    "name": "kalix_karlsborg_sjov-35103-swe-smhi",
    "Lat": 65.7887,
    "Lon": 23.3027,
    "HAT": 0.16462977230548859,
    "HAT_count": 7525,
    "MHHW": 0.0140149173395808,
    "MHHW_count": 7525,
    "MHW": 0.00468167095341325,
    "MHW_count": 9396,
    "MSL": 2.7644349570502846E-05,
    "MSL_count": 184104,
    "MTL": 0.0020580440224443179,
    "MTL_count": 7388,
    "MLW": -0.018198669174924114,
    "MLW_count": 9397,
    "MLLW": -0.010619801681325173,
    "MLLW_count": 7534,
    "LAT": -0.19236554205417633,
    "LAT_count": 7534
  },
  {
    "index": 131,
    "name": "kalixkarlsborg-kal-swe-cmems",
    "Lat": 65.7888,
    "Lon": 23.3033,
    "HAT": 0.20561367273330689,
    "HAT_count": 7524,
    "MHHW": 0.015672404312474398,
    "MHHW_count": 7524,
    "MHW": 0.0050447593983600006,
    "MHW_count": 10186,
    "MSL": 3.4823288519503138E-05,
    "MSL_count": 184104,
    "MTL": 0.0016276135380021645,
    "MTL_count": 7429,
    "MLW": -0.017486340894053851,
    "MLW_count": 10184,
    "MLLW": -0.012499378008578138,
    "MLLW_count": 7576,
    "LAT": -0.2151447981595993,
    "LAT_count": 7576
  },
  {
    "index": 132,
    "name": "ko_taphao_noi-148-tha-uhslc_fd",
    "Lat": 7.832,
    "Lon": 98.425,
    "HAT": 1.5555039644241333,
    "HAT_count": 7671,
    "MHHW": 0.96323065991010681,
    "MHHW_count": 7671,
    "MHW": 0.84821578833639566,
    "MHW_count": 14821,
    "MSL": 1.4776308643369192E-05,
    "MSL_count": 184104,
    "MTL": -0.016049377728192555,
    "MTL_count": 7671,
    "MLW": -0.872003064977254,
    "MLW_count": 14820,
    "MLLW": -0.923170786237813,
    "MLLW_count": 7671,
    "LAT": -1.6624836921691895,
    "LAT_count": 7671
  },
  {
    "index": 133,
    "name": "cape_parry-6360-can-meds",
    "Lat": 70.15,
    "Lon": -124.67,
    "HAT": 0.348025381565094,
    "HAT_count": 7671,
    "MHHW": 0.14925526409292905,
    "MHHW_count": 7671,
    "MHW": 0.12624604502072406,
    "MHW_count": 14822,
    "MSL": -6.6775220607088734E-06,
    "MSL_count": 184104,
    "MTL": 0.0019185783298141868,
    "MTL_count": 7671,
    "MLW": -0.12242782384393096,
    "MLW_count": 14821,
    "MLLW": -0.17260557633483559,
    "MLLW_count": 7671,
    "LAT": -0.4267180860042572,
    "LAT_count": 7671
  },
  {
    "index": 134,
    "name": "vardo-805-nor-uhslc_fd",
    "Lat": 70.333,
    "Lon": 31.1,
    "HAT": 1.7437169551849365,
    "HAT_count": 7671,
    "MHHW": 1.111226792834197,
    "MHHW_count": 7671,
    "MHW": 1.0539826557267422,
    "MHW_count": 14822,
    "MSL": -6.9653818081951559E-06,
    "MSL_count": 184104,
    "MTL": -0.0079856413880222427,
    "MTL_count": 7671,
    "MLW": -1.0764606889543662,
    "MLW_count": 14821,
    "MLLW": -1.1758546613641456,
    "MLLW_count": 7671,
    "LAT": -1.8993966579437256,
    "LAT_count": 7671
  },
  {
    "index": 135,
    "name": "alert-836-can-uhslc_fd",
    "Lat": 82.492,
    "Lon": -62.317,
    "HAT": 0.44761699438095093,
    "HAT_count": 7671,
    "MHHW": 0.27873129334401281,
    "MHHW_count": 7671,
    "MHW": 0.23967229191656256,
    "MHW_count": 14820,
    "MSL": 3.0459339305168756E-06,
    "MSL_count": 184104,
    "MTL": -0.0028491622569597206,
    "MTL_count": 7671,
    "MLW": -0.24316369769216786,
    "MLW_count": 14819,
    "MLLW": -0.27078379317380541,
    "MLLW_count": 7671,
    "LAT": -0.54681003093719482,
    "LAT_count": 7671
  },
  {
    "index": 136,
    "name": "hondoseto-9047-jpn-jodc_pahb",
    "Lat": 32.42972,
    "Lon": 130.20972,
    "HAT": 1.9615583419799805,
    "HAT_count": 7671,
    "MHHW": 1.1436234466443083,
    "MHHW_count": 7671,
    "MHW": 1.0746709453277636,
    "MHW_count": 14818,
    "MSL": -2.0905412973012352E-05,
    "MSL_count": 184104,
    "MTL": -0.0036694861202881727,
    "MTL_count": 7671,
    "MLW": -1.0787950478139281,
    "MLW_count": 14822,
    "MLLW": -1.3538405826195574,
    "MLLW_count": 7671,
    "LAT": -2.2717723846435547,
    "LAT_count": 7671
  },
  {
    "index": 137,
    "name": "kiritappuko-1618-jpn-jodc_pahb",
    "Lat": 43.0783,
    "Lon": 145.1164,
    "HAT": 0.66953140497207642,
    "HAT_count": 7671,
    "MHHW": 0.42216310501263749,
    "MHHW_count": 7671,
    "MHW": 0.34511515397580284,
    "MHW_count": 14441,
    "MSL": -1.1518675767616199E-05,
    "MSL_count": 184104,
    "MTL": 0.010612642271638544,
    "MTL_count": 7671,
    "MLW": -0.32371092991596578,
    "MLW_count": 14439,
    "MLLW": -0.534487940852018,
    "MLLW_count": 7671,
    "LAT": -0.96965765953063965,
    "LAT_count": 7671
  },
  {
    "index": 138,
    "name": "shiraoiko-1625-jpn-jodc_pahb",
    "Lat": 42.5214,
    "Lon": 141.3206,
    "HAT": 0.72662580013275146,
    "HAT_count": 7671,
    "MHHW": 0.44817571357725933,
    "MHHW_count": 7671,
    "MHW": 0.37642174216017116,
    "MHW_count": 14567,
    "MSL": -2.1535709870896267E-05,
    "MSL_count": 184104,
    "MTL": 0.015800561829209494,
    "MTL_count": 7671,
    "MLW": -0.34463154309337479,
    "MLW_count": 14564,
    "MLLW": -0.58166702634131462,
    "MLLW_count": 7671,
    "LAT": -1.0497438907623291,
    "LAT_count": 7671
  },
  {
    "index": 139,
    "name": "shimokita-ma74-jpn-jodc_jma",
    "Lat": 41.3647,
    "Lon": 141.2381,
    "HAT": 0.625556468963623,
    "HAT_count": 7671,
    "MHHW": 0.38075527177657142,
    "MHHW_count": 7671,
    "MHW": 0.34036527728761434,
    "MHW_count": 14708,
    "MSL": -1.3714290303674691E-05,
    "MSL_count": 184104,
    "MTL": 0.014934928742184692,
    "MTL_count": 7671,
    "MLW": -0.31115709359140276,
    "MLW_count": 14707,
    "MLLW": -0.52112754898128133,
    "MLLW_count": 7671,
    "LAT": -0.95047277212142944,
    "LAT_count": 7671
  },
  {
    "index": 140,
    "name": "matsuyama-ma34-jpn-jodc_jma",
    "Lat": 33.85888,
    "Lon": 132.71222,
    "HAT": 1.9302558898925781,
    "HAT_count": 7671,
    "MHHW": 1.2363247726952265,
    "MHHW_count": 7671,
    "MHW": 1.0760456309647535,
    "MHW_count": 14820,
    "MSL": -6.16750309999524E-06,
    "MSL_count": 184104,
    "MTL": 0.0026706735114357502,
    "MTL_count": 7671,
    "MLW": -1.0662176934634002,
    "MLW_count": 14822,
    "MLLW": -1.3542282753486223,
    "MLLW_count": 7671,
    "LAT": -2.1979899406433105,
    "LAT_count": 7671
  },
  {
    "index": 141,
    "name": "beihai-636a-chn-uhslc_rq",
    "Lat": 21.483,
    "Lon": 109.083,
    "HAT": 3.1753387451171875,
    "HAT_count": 7516,
    "MHHW": 1.6510826871821338,
    "MHHW_count": 7516,
    "MHW": 1.2094251059618111,
    "MHW_count": 10310,
    "MSL": -2.523759601229223E-05,
    "MSL_count": 184104,
    "MTL": 0.11195559073937011,
    "MTL_count": 7371,
    "MLW": -1.0632921160351725,
    "MLW_count": 10307,
    "MLLW": -1.3172237844902595,
    "MLLW_count": 7526,
    "LAT": -2.5265271663665771,
    "LAT_count": 7526
  },
  {
    "index": 142,
    "name": "monbetsuko-1609-jpn-jodc_pahb",
    "Lat": 44.355,
    "Lon": 143.36195,
    "HAT": 0.7337833046913147,
    "HAT_count": 7579,
    "MHHW": 0.38510275916832937,
    "MHHW_count": 7579,
    "MHW": 0.27762152117616368,
    "MHW_count": 12343,
    "MSL": -9.8068792121748332E-06,
    "MSL_count": 184104,
    "MTL": -0.0042567944296854629,
    "MTL_count": 7508,
    "MLW": -0.28316851284733496,
    "MLW_count": 12344,
    "MLLW": -0.42405383811764824,
    "MLLW_count": 7600,
    "LAT": -0.82027912139892578,
    "LAT_count": 7600
  },
  {
    "index": 143,
    "name": "kushimoto-ma26-jpn-jodc_jma",
    "Lat": 33.47583,
    "Lon": 135.77333,
    "HAT": 0.99849224090576172,
    "HAT_count": 7671,
    "MHHW": 0.54987569989665919,
    "MHHW_count": 7671,
    "MHW": 0.51357345182557246,
    "MHW_count": 14816,
    "MSL": -2.9243502117622015E-05,
    "MSL_count": 184104,
    "MTL": 0.014555291875491757,
    "MTL_count": 7671,
    "MLW": -0.48884369312580317,
    "MLW_count": 14815,
    "MLLW": -0.726890972181096,
    "MLLW_count": 7671,
    "LAT": -1.2887933254241943,
    "LAT_count": 7671
  },
  {
    "index": 144,
    "name": "kanmen-632a-chn-uhslc_rq",
    "Lat": 28.088,
    "Lon": 121.282,
    "HAT": 3.2653751373291016,
    "HAT_count": 7671,
    "MHHW": 2.0834495929350147,
    "MHHW_count": 7671,
    "MHW": 1.9561153955323842,
    "MHW_count": 14823,
    "MSL": -4.4724018519910766E-06,
    "MSL_count": 184104,
    "MTL": -0.029362997667671278,
    "MTL_count": 7671,
    "MLW": -2.0086588991950314,
    "MLW_count": 14821,
    "MLLW": -2.3068880848523428,
    "MLLW_count": 7671,
    "LAT": -3.5222735404968262,
    "LAT_count": 7671
  },
  {
    "index": 145,
    "name": "shirahama-ma27-jpn-jodc_jma",
    "Lat": 33.68362,
    "Lon": 135.37528,
    "HAT": 1.038936972618103,
    "HAT_count": 7671,
    "MHHW": 0.56990785467381455,
    "MHHW_count": 7671,
    "MHW": 0.5344709763182709,
    "MHW_count": 14816,
    "MSL": -3.1227016952189487E-05,
    "MSL_count": 184104,
    "MTL": 0.013739201736437001,
    "MTL_count": 7671,
    "MLW": -0.51162704364807154,
    "MLW_count": 14814,
    "MLLW": -0.75301243873365764,
    "MLLW_count": 7671,
    "LAT": -1.34077787399292,
    "LAT_count": 7671
  },
  {
    "index": 146,
    "name": "naha-ma44-jpn-jodc_jma",
    "Lat": 26.21333,
    "Lon": 127.66528,
    "HAT": 1.2032309770584106,
    "HAT_count": 7671,
    "MHHW": 0.68115535799597,
    "MHHW_count": 7671,
    "MHW": 0.627065948529644,
    "MHW_count": 14820,
    "MSL": -1.9392202095964814E-05,
    "MSL_count": 184104,
    "MTL": 0.0082151217442217022,
    "MTL_count": 7671,
    "MLW": -0.61348084500304534,
    "MLW_count": 14822,
    "MLLW": -0.83407512939849648,
    "MLLW_count": 7671,
    "LAT": -1.4449143409729004,
    "LAT_count": 7671
  },
  {
    "index": 147,
    "name": "nemuroko-0133-jpn-jodc_pahb",
    "Lat": 43.34167,
    "Lon": 145.59,
    "HAT": 0.73048710823059082,
    "HAT_count": 7671,
    "MHHW": 0.44516532098139444,
    "MHHW_count": 7671,
    "MHW": 0.36694687957090083,
    "MHW_count": 14572,
    "MSL": -9.963984881005141E-06,
    "MSL_count": 184104,
    "MTL": 0.011391058258107722,
    "MTL_count": 7671,
    "MLW": -0.34412749816881905,
    "MLW_count": 14572,
    "MLLW": -0.58336505681286555,
    "MLLW_count": 7671,
    "LAT": -1.0296022891998291,
    "LAT_count": 7671
  },
  {
    "index": 148,
    "name": "kainan-gs05-jpn-jodc_giaj",
    "Lat": 34.14417,
    "Lon": 135.19138,
    "HAT": 1.0375229120254517,
    "HAT_count": 7671,
    "MHHW": 0.56212497469445222,
    "MHHW_count": 7671,
    "MHW": 0.52116265977982346,
    "MHW_count": 14796,
    "MSL": -2.7987733827178048E-05,
    "MSL_count": 184104,
    "MTL": 0.019374975353937181,
    "MTL_count": 7671,
    "MLW": -0.4863399744219159,
    "MLW_count": 14793,
    "MLLW": -0.74619043949448038,
    "MLLW_count": 7671,
    "LAT": -1.3890905380249023,
    "LAT_count": 7671
  },
  {
    "index": 149,
    "name": "kushimoto-353-jpn-uhslc_fd",
    "Lat": 33.467,
    "Lon": 135.783,
    "HAT": 0.99808734655380249,
    "HAT_count": 7671,
    "MHHW": 0.5502100901707585,
    "MHHW_count": 7671,
    "MHW": 0.5137697371390707,
    "MHW_count": 14816,
    "MSL": -2.8938130228090003E-05,
    "MSL_count": 184104,
    "MTL": 0.014465026553398597,
    "MTL_count": 7671,
    "MLW": -0.48917637980687906,
    "MLW_count": 14816,
    "MLLW": -0.727297851050705,
    "MLLW_count": 7671,
    "LAT": -1.2882562875747681,
    "LAT_count": 7671
  },
  {
    "index": 150,
    "name": "xiamen-376a-chn-uhslc_rq",
    "Lat": 24.45,
    "Lon": 118.067,
    "HAT": 3.3526017665863037,
    "HAT_count": 7671,
    "MHHW": 2.1527295274617013,
    "MHHW_count": 7671,
    "MHW": 2.0489677012244161,
    "MHW_count": 14823,
    "MSL": 2.8643007424195397E-05,
    "MSL_count": 184104,
    "MTL": 0.091950426111837555,
    "MTL_count": 7671,
    "MLW": -1.8559016999831939,
    "MLW_count": 14822,
    "MLLW": -2.2166988004949379,
    "MLLW_count": 7671,
    "LAT": -3.1915407180786133,
    "LAT_count": 7671
  },
  {
    "index": 151,
    "name": "abashiri-ma02-jpn-jodc_jma",
    "Lat": 44.01945,
    "Lon": 144.28583,
    "HAT": 0.83449435234069824,
    "HAT_count": 7542,
    "MHHW": 0.42077274981259183,
    "MHHW_count": 7542,
    "MHW": 0.28676641855860868,
    "MHW_count": 11955,
    "MSL": -3.2972752894685454E-06,
    "MSL_count": 184104,
    "MTL": 0.0044799356332037273,
    "MTL_count": 7462,
    "MLW": -0.28860588228152073,
    "MLW_count": 11954,
    "MLLW": -0.3957142066011754,
    "MLLW_count": 7591,
    "LAT": -0.80621123313903809,
    "LAT_count": 7591
  },
  {
    "index": 152,
    "name": "uragami-ma25-jpn-jodc_jma",
    "Lat": 33.55833,
    "Lon": 135.89638,
    "HAT": 0.96477055549621582,
    "HAT_count": 7671,
    "MHHW": 0.544741014911491,
    "MHHW_count": 7671,
    "MHW": 0.509782611396524,
    "MHW_count": 14817,
    "MSL": -2.7981016267140733E-05,
    "MSL_count": 184104,
    "MTL": 0.013184045337320908,
    "MTL_count": 7671,
    "MLW": -0.48776513287905554,
    "MLW_count": 14817,
    "MLLW": -0.72324773392432085,
    "MLLW_count": 7671,
    "LAT": -1.2661488056182861,
    "LAT_count": 7671
  },
  {
    "index": 153,
    "name": "naze-359-jpn-uhslc_fd",
    "Lat": 28.378,
    "Lon": 129.498,
    "HAT": 1.2091813087463379,
    "HAT_count": 7671,
    "MHHW": 0.65616397424442585,
    "MHHW_count": 7671,
    "MHW": 0.61888542864484242,
    "MHW_count": 14822,
    "MSL": -2.7137184777027837E-05,
    "MSL_count": 184104,
    "MTL": 0.01109344960576718,
    "MTL_count": 7671,
    "MLW": -0.59985003780626633,
    "MLW_count": 14823,
    "MLLW": -0.81934730982107562,
    "MLLW_count": 7671,
    "LAT": -1.4384422302246094,
    "LAT_count": 7671
  },
  {
    "index": 154,
    "name": "vinga_sjov-35144-swe-smhi",
    "Lat": 57.6317,
    "Lon": 11.6076,
    "HAT": 0.22269216179847717,
    "HAT_count": 7671,
    "MHHW": 0.10248258785536669,
    "MHHW_count": 7671,
    "MHW": 0.087511577530833731,
    "MHW_count": 15710,
    "MSL": 1.2949116579470833E-05,
    "MSL_count": 184104,
    "MTL": 0.0063335336557830335,
    "MTL_count": 7671,
    "MLW": -0.071812355309630968,
    "MLW_count": 15712,
    "MLLW": -0.091082474155372226,
    "MLLW_count": 7671,
    "LAT": -0.27388566732406616,
    "LAT_count": 7671
  },
  {
    "index": 155,
    "name": "vinga2-vin-swe-cmems",
    "Lat": 57.6317,
    "Lon": 11.6076,
    "HAT": 0.24280618131160736,
    "HAT_count": 7671,
    "MHHW": 0.10708466653136144,
    "MHHW_count": 7671,
    "MHW": 0.092662272068033028,
    "MHW_count": 15489,
    "MSL": -2.5534336315344521E-06,
    "MSL_count": 184104,
    "MTL": 0.007935599567229069,
    "MTL_count": 7671,
    "MLW": -0.07492322096819734,
    "MLW_count": 15490,
    "MLLW": -0.093775398111851371,
    "MLLW_count": 7671,
    "LAT": -0.26912820339202881,
    "LAT_count": 7671
  },
  {
    "index": 156,
    "name": "le_robert-224-fra-refmar",
    "Lat": 14.678,
    "Lon": -60.9408,
    "HAT": 0.42105165123939514,
    "HAT_count": 7671,
    "MHHW": 0.22094449863952806,
    "MHHW_count": 7671,
    "MHW": 0.17279495892478383,
    "MHW_count": 14806,
    "MSL": -6.2511933270577732E-06,
    "MSL_count": 184104,
    "MTL": 0.0018551145957342811,
    "MTL_count": 7671,
    "MLW": -0.16947310401510946,
    "MLW_count": 14806,
    "MLLW": -0.24354576252827262,
    "MLLW_count": 7671,
    "LAT": -0.46833053231239319,
    "LAT_count": 7671
  },
  {
    "index": 157,
    "name": "batiscan-3345-can-meds",
    "Lat": 46.5,
    "Lon": -72.25,
    "HAT": 1.6409364938735962,
    "HAT_count": 7671,
    "MHHW": 0.43625022538194547,
    "MHHW_count": 7671,
    "MHW": 0.34698457363379587,
    "MHW_count": 15023,
    "MSL": -0.00021558069467926343,
    "MSL_count": 184104,
    "MTL": 0.011668557811246764,
    "MTL_count": 7671,
    "MLW": -0.32829631981784846,
    "MLW_count": 15024,
    "MLLW": -0.35660631263809311,
    "MLLW_count": 7671,
    "LAT": -1.0389760732650757,
    "LAT_count": 7671
  },
  {
    "index": 158,
    "name": "ile_dentree-1966-can-meds",
    "Lat": 47.28,
    "Lon": -61.72,
    "HAT": 0.43500381708145142,
    "HAT_count": 7671,
    "MHHW": 0.24500176551607439,
    "MHHW_count": 7671,
    "MHW": 0.21970072900118284,
    "MHW_count": 14803,
    "MSL": 2.2107827854428151E-05,
    "MSL_count": 184104,
    "MTL": 0.014932839555970403,
    "MTL_count": 7662,
    "MLW": -0.18782554393872636,
    "MLW_count": 14808,
    "MLLW": -0.34726177839561706,
    "MLLW_count": 7662,
    "LAT": -0.6939537525177002,
    "LAT_count": 7662
  },
  {
    "index": 159,
    "name": "ile_d_aix-189-fra-refmar",
    "Lat": 46.00736,
    "Lon": -1.17434,
    "HAT": 2.782839298248291,
    "HAT_count": 7671,
    "MHHW": 1.7463657532050951,
    "MHHW_count": 7671,
    "MHW": 1.6840900843669717,
    "MHW_count": 14860,
    "MSL": -2.6378891062139087E-05,
    "MSL_count": 184104,
    "MTL": -0.23954972396725494,
    "MTL_count": 7671,
    "MLW": -2.1751755921076965,
    "MLW_count": 14857,
    "MLLW": -2.2727808772530804,
    "MLLW_count": 7671,
    "LAT": -3.6440873146057129,
    "LAT_count": 7671
  },
  {
    "index": 160,
    "name": "iledaixtg_60minute-ile-fra-cmems",
    "Lat": 46.00736,
    "Lon": -1.17434,
    "HAT": 2.7833025455474854,
    "HAT_count": 7671,
    "MHHW": 1.7461671199610236,
    "MHHW_count": 7671,
    "MHW": 1.6839119326498755,
    "MHW_count": 14860,
    "MSL": -2.6412963130057398E-05,
    "MSL_count": 184104,
    "MTL": -0.23958326457444293,
    "MTL_count": 7671,
    "MLW": -2.1751048831701549,
    "MLW_count": 14857,
    "MLLW": -2.2726496327593155,
    "MLLW_count": 7671,
    "LAT": -3.6434476375579834,
    "LAT_count": 7671
  },
  {
    "index": 161,
    "name": "hornbaek-838a-dnk-uhslc_rq",
    "Lat": 56.1,
    "Lon": 12.467,
    "HAT": 0.25229191780090332,
    "HAT_count": 7671,
    "MHHW": 0.092917119979167143,
    "MHHW_count": 7671,
    "MHW": 0.0739446518815557,
    "MHW_count": 15180,
    "MSL": -2.9053884196259351E-06,
    "MSL_count": 184104,
    "MTL": -0.00010386016226199437,
    "MTL_count": 7671,
    "MLW": -0.07419395851233293,
    "MLW_count": 15178,
    "MLLW": -0.091211987584809681,
    "MLLW_count": 7671,
    "LAT": -0.29183650016784668,
    "LAT_count": 7671
  },
  {
    "index": 162,
    "name": "hornbaek-hor-dnk-cmems",
    "Lat": 56.1,
    "Lon": 12.4667,
    "HAT": 0.23190969228744507,
    "HAT_count": 7671,
    "MHHW": 0.099649654878813027,
    "MHHW_count": 7671,
    "MHW": 0.079912372676066115,
    "MHW_count": 15149,
    "MSL": 7.5533385125274323E-06,
    "MSL_count": 184104,
    "MTL": 0.00048044642477051129,
    "MTL_count": 7671,
    "MLW": -0.079106691123676492,
    "MLW_count": 15145,
    "MLLW": -0.095764560389722045,
    "MLLW_count": 7671,
    "LAT": -0.28781291842460632,
    "LAT_count": 7671
  },
  {
    "index": 163,
    "name": "hornbaek-hor-dnk-dmi",
    "Lat": 56.1,
    "Lon": 12.46667,
    "HAT": 0.25046685338020325,
    "HAT_count": 7671,
    "MHHW": 0.094566155395596235,
    "MHHW_count": 7671,
    "MHW": 0.075315284897369481,
    "MHW_count": 15157,
    "MSL": -2.3015668563118929E-06,
    "MSL_count": 184104,
    "MTL": 2.08892386140459E-05,
    "MTL_count": 7671,
    "MLW": -0.075491915704040319,
    "MLW_count": 15153,
    "MLLW": -0.092582577831121685,
    "MLLW_count": 7671,
    "LAT": -0.29072621464729309,
    "LAT_count": 7671
  },
  {
    "index": 164,
    "name": "forsmark-2179-swe-smhi",
    "Lat": 60.4086,
    "Lon": 18.2108,
    "HAT": 0.14647118747234345,
    "HAT_count": 7629,
    "MHHW": 0.011102006896161474,
    "MHHW_count": 7629,
    "MHW": 0.0054575830627611776,
    "MHW_count": 13700,
    "MSL": 1.9866406776470359E-05,
    "MSL_count": 184104,
    "MTL": -0.00089200538295508016,
    "MTL_count": 7441,
    "MLW": -0.0093249363844264722,
    "MLW_count": 13701,
    "MLLW": -0.012316295266731102,
    "MLLW_count": 7483,
    "LAT": -0.17465947568416596,
    "LAT_count": 7483
  },
  {
    "index": 165,
    "name": "keelung-341a-chn-uhslc_rq",
    "Lat": 25.155,
    "Lon": 121.752,
    "HAT": 0.70021528005599976,
    "HAT_count": 7671,
    "MHHW": 0.34631491279031446,
    "MHHW_count": 7671,
    "MHW": 0.26946817793893163,
    "MHW_count": 14573,
    "MSL": -1.5689351671555302E-05,
    "MSL_count": 184104,
    "MTL": 0.011166231996602005,
    "MTL_count": 7670,
    "MLW": -0.24449288145936798,
    "MLW_count": 14572,
    "MLLW": -0.43761510051606434,
    "MLLW_count": 7670,
    "LAT": -0.96453231573104858,
    "LAT_count": 7670
  },
  {
    "index": 166,
    "name": "komatsushima-ma36-jpn-jodc_jma",
    "Lat": 34.00917,
    "Lon": 134.58778,
    "HAT": 1.0036767721176148,
    "HAT_count": 7671,
    "MHHW": 0.52440097957379406,
    "MHHW_count": 7671,
    "MHW": 0.48766123567612329,
    "MHW_count": 14793,
    "MSL": -3.202932936394807E-05,
    "MSL_count": 184104,
    "MTL": 0.016169163747493328,
    "MTL_count": 7671,
    "MLW": -0.45935368108759062,
    "MLW_count": 14792,
    "MLLW": -0.699896855358233,
    "MLLW_count": 7671,
    "LAT": -1.3051667213439941,
    "LAT_count": 7671
  },
  {
    "index": 167,
    "name": "yatsushiro-9029-jpn-jodc_pahb",
    "Lat": 32.51195,
    "Lon": 130.56667,
    "HAT": 2.1635565757751465,
    "HAT_count": 7671,
    "MHHW": 1.282204749913729,
    "MHHW_count": 7671,
    "MHW": 1.2103270418440779,
    "MHW_count": 14821,
    "MSL": -1.4146313511345651E-05,
    "MSL_count": 184104,
    "MTL": 0.0033289670050001691,
    "MTL_count": 7671,
    "MLW": -1.1998859429422173,
    "MLW_count": 14821,
    "MLLW": -1.4802940330438859,
    "MLLW_count": 7671,
    "LAT": -2.4512209892272949,
    "LAT_count": 7671
  },
  {
    "index": 168,
    "name": "hachinohe-375a-jpn-uhslc_rq",
    "Lat": 40.533,
    "Lon": 141.533,
    "HAT": 0.7100684642791748,
    "HAT_count": 7671,
    "MHHW": 0.4292411847675508,
    "MHHW_count": 7671,
    "MHW": 0.36847965298062968,
    "MHW_count": 14601,
    "MSL": -1.3207785022182863E-05,
    "MSL_count": 184104,
    "MTL": 0.014165228547782587,
    "MTL_count": 7671,
    "MLW": -0.33983681626402362,
    "MLW_count": 14602,
    "MLLW": -0.57203488243086531,
    "MLLW_count": 7671,
    "LAT": -1.0504220724105835,
    "LAT_count": 7671
  },
  {
    "index": 169,
    "name": "hachinohe-2001-jpn-jodc_pahb",
    "Lat": 40.53528,
    "Lon": 141.55555,
    "HAT": 0.71698379516601562,
    "HAT_count": 7671,
    "MHHW": 0.42692195573777231,
    "MHHW_count": 7671,
    "MHW": 0.36614546705232753,
    "MHW_count": 14585,
    "MSL": -1.7754511888104471E-05,
    "MSL_count": 184104,
    "MTL": 0.014248391091490273,
    "MTL_count": 7671,
    "MLW": -0.33707803600133562,
    "MLW_count": 14585,
    "MLLW": -0.56683535881119973,
    "MLLW_count": 7671,
    "LAT": -1.0207970142364502,
    "LAT_count": 7671
  },
  {
    "index": 170,
    "name": "niigatakonishiko-0103-jpn-jodc_pahb",
    "Lat": 37.94055,
    "Lon": 139.06112,
    "HAT": 0.29794728755950928,
    "HAT_count": 7655,
    "MHHW": 0.096207260245245854,
    "MHHW_count": 7655,
    "MHW": 0.074362433253881685,
    "MHW_count": 13882,
    "MSL": -1.1428857083627115E-05,
    "MSL_count": 184104,
    "MTL": 0.0025032210583150012,
    "MTL_count": 7648,
    "MLW": -0.067586162777094713,
    "MLW_count": 13879,
    "MLLW": -0.12114169961996574,
    "MLLW_count": 7664,
    "LAT": -0.33161035180091858,
    "LAT_count": 7664
  },
  {
    "index": 171,
    "name": "aalesundtg-aal-nor-cmems",
    "Lat": 62.46941,
    "Lon": 6.15195,
    "HAT": 1.1200709342956543,
    "HAT_count": 7671,
    "MHHW": 0.67992051674790988,
    "MHHW_count": 7671,
    "MHW": 0.63781890163914168,
    "MHW_count": 14822,
    "MSL": 2.1332211719361032E-05,
    "MSL_count": 184104,
    "MTL": -0.00094190583410678531,
    "MTL_count": 7671,
    "MLW": -0.63523002136853068,
    "MLW_count": 14822,
    "MLLW": -0.69511570552930479,
    "MLLW_count": 7671,
    "LAT": -1.226082444190979,
    "LAT_count": 7671
  },
  {
    "index": 172,
    "name": "coruna2tg-cor-esp-cmems",
    "Lat": 43.3644,
    "Lon": -8.3989,
    "HAT": 2.0967171192169189,
    "HAT_count": 7671,
    "MHHW": 1.2995431788460929,
    "MHHW_count": 7671,
    "MHW": 1.2327606936281081,
    "MHW_count": 14822,
    "MSL": -1.1459746953798144E-05,
    "MSL_count": 184104,
    "MTL": 0.00025543323493203818,
    "MTL_count": 7671,
    "MLW": -1.2400360543509288,
    "MLW_count": 14823,
    "MLLW": -1.2975573081801448,
    "MLLW_count": 7671,
    "LAT": -2.0546417236328125,
    "LAT_count": 7671
  },
  {
    "index": 173,
    "name": "corunatg-cor-esp-cmems",
    "Lat": 43.357,
    "Lon": -8.389,
    "HAT": 2.0933902263641357,
    "HAT_count": 7671,
    "MHHW": 1.2999824737262391,
    "MHHW_count": 7671,
    "MHW": 1.2329613528255992,
    "MHW_count": 14822,
    "MSL": -1.7696227384630606E-05,
    "MSL_count": 184104,
    "MTL": -0.0023027034670247922,
    "MTL_count": 7671,
    "MLW": -1.2454661163480392,
    "MLW_count": 14821,
    "MLLW": -1.3009617962491915,
    "MLLW_count": 7671,
    "LAT": -2.0716855525970459,
    "LAT_count": 7671
  },
  {
    "index": 174,
    "name": "mera-ma14-jpn-jodc_jma",
    "Lat": 34.91888,
    "Lon": 139.825,
    "HAT": 0.772369921207428,
    "HAT_count": 7671,
    "MHHW": 0.46296197190791422,
    "MHHW_count": 7671,
    "MHW": 0.41904541493026087,
    "MHW_count": 14718,
    "MSL": -2.022584174916586E-05,
    "MSL_count": 184104,
    "MTL": 0.014309066538808646,
    "MTL_count": 7671,
    "MLW": -0.39264702961853126,
    "MLW_count": 14717,
    "MLLW": -0.64186555996210681,
    "MLLW_count": 7671,
    "LAT": -1.1092935800552368,
    "LAT_count": 7671
  },
  {
    "index": 175,
    "name": "hofu-ma67-jpn-jodc_jma",
    "Lat": 34.03333,
    "Lon": 131.58333,
    "HAT": 1.7785443067550659,
    "HAT_count": 7671,
    "MHHW": 1.1036200740687494,
    "MHHW_count": 7671,
    "MHW": 0.9830152180843581,
    "MHW_count": 14822,
    "MSL": -1.24736839501456E-05,
    "MSL_count": 184104,
    "MTL": 0.0061313456952072007,
    "MTL_count": 7671,
    "MLW": -0.968444824649123,
    "MLW_count": 14819,
    "MLLW": -1.2524501322309098,
    "MLLW_count": 7671,
    "LAT": -2.1021115779876709,
    "LAT_count": 7671
  },
  {
    "index": 176,
    "name": "tanokubi-9006-jpn-jodc_pahb",
    "Lat": 33.91305,
    "Lon": 130.91695,
    "HAT": 0.9602627158164978,
    "HAT_count": 7671,
    "MHHW": 0.50561306000692163,
    "MHHW_count": 7671,
    "MHW": 0.42765355290019597,
    "MHW_count": 14812,
    "MSL": 3.4562065587602226E-06,
    "MSL_count": 184104,
    "MTL": -0.038596695572572025,
    "MTL_count": 7665,
    "MLW": -0.50283298909076679,
    "MLW_count": 14813,
    "MLLW": -0.62764624975140548,
    "MLLW_count": 7665,
    "LAT": -1.1873559951782227,
    "LAT_count": 7665
  },