[
    {
        "index": 0,
        "Lat": -20.92,
        "Lon": 55.3,
        "HAT": 0.40705373883247375,
        "HAT_count": 7671,
        "MHHW": 0.20680828231464451,
        "MHHW_count": 7671,
        "MHW": 0.1874430483295175,
        "MHW_count": 14805,
        "MSL": 5.2198294425393e-06,
        "MSL_count": 184104,
        "MTL": -0.0008214201627626487,
        "MTL_count": 7666,
        "MLW": -0.18808281001342878,
        "MLW_count": 14806,
        "MLLW": -0.23567715279609708,
        "MLLW_count": 7666,
        "LAT": -0.46376854181289673,
        "LAT_count": 7666,
        "tide_gauge_name": "scott_base_antarctica-scot-nzl-ttw"
    },
    {
        "index": 1,
        "Lat": -23.34177,
        "Lon": -23.34177,
        "HAT": 0.34853312373161316,
        "HAT_count": 7669,
        "MHHW": 0.1816138022541022,
        "MHHW_count": 7669,
        "MHW": 0.17411059331838352,
        "MHW_count": 14846,
        "MSL": 4.597182014389952e-06,
        "MSL_count": 184104,
        "MTL": -0.0010395780602519924,
        "MTL_count": 7669,
        "MLW": -0.17687948088881703,
        "MLW_count": 14847,
        "MLLW": -0.2003841913768881,
        "MLLW_count": 7671,
        "LAT": -0.36134353280067444,
        "LAT_count": 7671,
        "tide_gauge_name": "scott_base-663a-nzl-uhslc_rq"
    },
    {
        "index": 2,
        "Lat": -26.283,
        "Lon": -80.133,
        "HAT": 0.6883429288864136,
        "HAT_count": 7671,
        "MHHW": 0.4130359484475212,
        "MHHW_count": 7671,
        "MHW": 0.2723862541747977,
        "MHW_count": 14823,
        "MSL": 9.543258552197301e-06,
        "MSL_count": 184104,
        "MTL": -0.007081053124973965,
        "MTL_count": 7671,
        "MLW": -0.285442961239892,
        "MLW_count": 14822,
        "MLLW": -0.3252732471814601,
        "MLLW_count": 7671,
        "LAT": -0.4742976725101471,
        "LAT_count": 7671,
        "tide_gauge_name": "cape_roberts-robt-nzl-ttw"
    },
    {
        "index": 3,
        "Lat": -29.25,
        "Lon": 177.9,
        "HAT": 0.9714816212654114,
        "HAT_count": 7671,
        "MHHW": 0.5149520093191713,
        "MHHW_count": 7671,
        "MHW": 0.4887383741165303,
        "MHW_count": 14819,
        "MSL": 4.1871732544895e-05,
        "MSL_count": 184104,
        "MTL": 0.000351609914742253,
        "MTL_count": 7671,
        "MLW": -0.4877428361143111,
        "MLW_count": 14823,
        "MLLW": -0.5258616644947028,
        "MLLW_count": 7671,
        "LAT": -1.0458683967590332,
        "LAT_count": 7671,
        "tide_gauge_name": "syowa_station_antarctica-hd50-ata-jodc_jcg"
    },
    {
        "index": 4,
        "Lat": -29.28333,
        "Lon": 177.9,
        "HAT": 0.9477645754814148,
        "HAT_count": 7671,
        "MHHW": 0.49503813392873997,
        "MHHW_count": 7671,
        "MHW": 0.4673673282146822,
        "MHW_count": 14822,
        "MSL": -1.3114305518830046e-05,
        "MSL_count": 184104,
        "MTL": -0.0044992419011901895,
        "MTL_count": 7671,
        "MLW": -0.47586009671152313,
        "MLW_count": 14822,
        "MLLW": -0.5174481904139253,
        "MLLW_count": 7671,
        "LAT": -1.0338374376296997,
        "LAT_count": 7671,
        "tide_gauge_name": "syowa_antarctica-127-ata-uhslc_fd"
    },
    {
        "index": 5,
        "Lat": -34.067,
        "Lon": 22.333,
        "HAT": 1.2329181432724,
        "HAT_count": 7671,
        "MHHW": 0.7021849585570548,
        "MHHW_count": 7671,
        "MHW": 0.6534880438060319,
        "MHW_count": 14821,
        "MSL": -4.863059656943499e-06,
        "MSL_count": 184104,
        "MTL": 0.01054888711218775,
        "MTL_count": 7671,
        "MLW": -0.6362153407597957,
        "MLW_count": 14822,
        "MLLW": -0.678557347589328,
        "MLLW_count": 7671,
        "LAT": -1.1146906614303589,
        "LAT_count": 7671,
        "tide_gauge_name": "davis-173-aus-uhslc_fd"
    },
    {
        "index": 6,
        "Lat": -38.1,
        "Lon": 144.65,
        "HAT": 0.5023083090782166,
        "HAT_count": 7671,
        "MHHW": 0.3051916646310146,
        "MHHW_count": 7671,
        "MHW": 0.27255447652829196,
        "MHW_count": 14819,
        "MSL": -9.999593317027758e-06,
        "MSL_count": 184104,
        "MTL": 0.008026171160311223,
        "MTL_count": 7671,
        "MLW": -0.25748398490104335,
        "MLW_count": 14822,
        "MLLW": -0.36284186074291924,
        "MLLW_count": 7671,
        "LAT": -0.5401685237884521,
        "LAT_count": 7671,
        "tide_gauge_name": "san_martin-681c-arg-uhslc_rq"
    },
    {
        "index": 7,
        "Lat": -38.3271,
        "Lon": 144.8987,
        "HAT": 0.4342767596244812,
        "HAT_count": 7671,
        "MHHW": 0.2549366773208262,
        "MHHW_count": 7671,
        "MHW": 0.22675379345120608,
        "MHW_count": 14820,
        "MSL": -1.1557931533093214e-05,
        "MSL_count": 184104,
        "MTL": 0.007891935140347098,
        "MTL_count": 7671,
        "MLW": -0.21188080512885663,
        "MLW_count": 14819,
        "MLLW": -0.31469729859073536,
        "MLLW_count": 7671,
        "LAT": -0.4932050406932831,
        "LAT_count": 7671,
        "tide_gauge_name": "mawson-177-aus-uhslc_fd"
    },
    {
        "index": 8,
        "Lat": -41.15,
        "Lon": 146.3833,
        "HAT": 1.6378662586212158,
        "HAT_count": 7671,
        "MHHW": 1.2203463608897536,
        "MHHW_count": 7671,
        "MHW": 1.178909919482333,
        "MHW_count": 14820,
        "MSL": 2.0238064695271067e-05,
        "MSL_count": 184104,
        "MTL": 0.0033634913258802648,
        "MTL_count": 7671,
        "MLW": -1.1739387624812796,
        "MLW_count": 14821,
        "MLLW": -1.3485974778549066,
        "MLLW_count": 7671,
        "LAT": -1.8966282606124878,
        "LAT_count": 7671,
        "tide_gauge_name": "rothera-rot-gbr-noc"
    },
    {
        "index": 9,
        "Lat": -44.02389,
        "Lon": 176.3675,
        "HAT": 0.6921178698539734,
        "HAT_count": 7671,
        "MHHW": 0.48835496619400093,
        "MHHW_count": 7671,
        "MHW": 0.47012282595703947,
        "MHW_count": 14822,
        "MSL": -2.285307165797118e-05,
        "MSL_count": 184104,
        "MTL": -0.0015202243607404641,
        "MTL_count": 7671,
        "MLW": -0.4734900127138755,
        "MLW_count": 14822,
        "MLLW": -0.4910096155549724,
        "MLLW_count": 7671,
        "LAT": -0.6813516616821289,
        "LAT_count": 7671,
        "tide_gauge_name": "rothera-832a-gbr-uhslc_rq"
    },
    {
        "index": 10,
        "Lat": -46.867,
        "Lon": 37.867,
        "HAT": 0.48781219124794006,
        "HAT_count": 7671,
        "MHHW": 0.2743853811354801,
        "MHHW_count": 7671,
        "MHW": 0.25021436151467447,
        "MHW_count": 14822,
        "MSL": -1.4486012055858668e-07,
        "MSL_count": 184104,
        "MTL": 0.002373279206905098,
        "MTL_count": 7671,
        "MLW": -0.2480658102044069,
        "MLW_count": 14820,
        "MLLW": -0.264167596187951,
        "MLLW_count": 7671,
        "LAT": -0.4624127149581909,
        "LAT_count": 7671,
        "tide_gauge_name": "dumont_durville-189-ata-uhslc_fd"
    },
    {
        "index": 11,
        "Lat": -51.75,
        "Lon": -57.933,
        "HAT": 0.9525533318519592,
        "HAT_count": 7671,
        "MHHW": 0.564331661010912,
        "MHHW_count": 7671,
        "MHW": 0.47722508975309313,
        "MHW_count": 14822,
        "MSL": -7.003551106864769e-06,
        "MSL_count": 184104,
        "MTL": 0.007060755641064757,
        "MTL_count": 7671,
        "MLW": -0.46695906543317434,
        "MLW_count": 14820,
        "MLLW": -0.6057420362997764,
        "MLLW_count": 7671,
        "LAT": -0.9856426119804382,
        "LAT_count": 7671,
        "tide_gauge_name": "dumont_d_urville-108-fra-refmar"
    },
    {
        "index": 12,
        "Lat": -52.7,
        "Lon": -57.867,
        "HAT": 0.9821591377258301,
        "HAT_count": 7670,
        "MHHW": 0.577688912751039,
        "MHHW_count": 7670,
        "MHW": 0.4911918040686733,
        "MHW_count": 14820,
        "MSL": -1.2405802087082076e-05,
        "MSL_count": 184104,
        "MTL": 0.007584304305061423,
        "MTL_count": 7670,
        "MLW": -0.47997251130772717,
        "MLW_count": 14821,
        "MLLW": -0.6223377358076579,
        "MLLW_count": 7671,
        "LAT": -1.011650800704956,
        "LAT_count": 7671,
        "tide_gauge_name": "dumontdurvilletg_60minute-dum-fra-cmems"
    },
    {
        "index": 13,
        "Lat": -6.933,
        "Lon": -80.717,
        "HAT": 0.8409557342529297,
        "HAT_count": 7671,
        "MHHW": 0.5044999019337643,
        "MHHW_count": 7671,
        "MHW": 0.4373685411729131,
        "MHW_count": 14822,
        "MSL": -3.1828039177362266e-06,
        "MSL_count": 184104,
        "MTL": 0.0033929251986357625,
        "MTL_count": 7671,
        "MLW": -0.43333208287454006,
        "MLW_count": 14820,
        "MLLW": -0.5319788792467913,
        "MLLW_count": 7671,
        "LAT": -0.8570442199707031,
        "LAT_count": 7671,
        "tide_gauge_name": "casey-130-aus-uhslc_fd"
    },
    {
        "index": 14,
        "Lat": -62.483,
        "Lon": -59.633,
        "HAT": 0.9435470104217529,
        "HAT_count": 7671,
        "MHHW": 0.6029365434086846,
        "MHHW_count": 7671,
        "MHW": 0.5404946716680131,
        "MHW_count": 14518,
        "MSL": 6.164413161124924e-06,
        "MSL_count": 184104,
        "MTL": 0.013042841256500395,
        "MTL_count": 7596,
        "MLW": -0.5043337273922616,
        "MLW_count": 14517,
        "MLLW": -0.8316249228697931,
        "MLLW_count": 7596,
        "LAT": -1.4732154607772827,
        "LAT_count": 7596,
        "tide_gauge_name": "faraday-700-ata-uhslc_fd"
    },
    {
        "index": 15,
        "Lat": -65.25,
        "Lon": -64.2667,
        "HAT": 0.9550052881240845,
        "HAT_count": 7663,
        "MHHW": 0.4785438678808302,
        "MHHW_count": 7663,
        "MHW": 0.3769979955707309,
        "MHW_count": 12907,
        "MSL": -6.645041381905765e-06,
        "MSL_count": 184104,
        "MTL": 0.011635539235733629,
        "MTL_count": 7566,
        "MLW": -0.34148181032021147,
        "MLW_count": 12908,
        "MLLW": -0.5957973748607822,
        "MLLW_count": 7574,
        "LAT": -1.1374000310897827,
        "LAT_count": 7574,
        "tide_gauge_name": "vernadsky-ver-ukr-noc"
    },
    {
        "index": 16,
        "Lat": -65.25,
        "Lon": -64.267,
        "HAT": 0.9597457647323608,
        "HAT_count": 7662,
        "MHHW": 0.480884730370829,
        "MHHW_count": 7662,
        "MHW": 0.37956721029933516,
        "MHW_count": 12914,
        "MSL": -9.198410196618484e-06,
        "MSL_count": 184104,
        "MTL": 0.011159241375375002,
        "MTL_count": 7563,
        "MLW": -0.34414203657949105,
        "MLW_count": 12914,
        "MLLW": -0.5995957704030451,
        "MLLW_count": 7572,
        "LAT": -1.1415468454360962,
        "LAT_count": 7572,
        "tide_gauge_name": "base_prat-730-chl-uhslc_fd"
    },
    {
        "index": 17,
        "Lat": -68.45,
        "Lon": 77.967,
        "HAT": 1.2328203916549683,
        "HAT_count": 7671,
        "MHHW": 0.5920862007724303,
        "MHHW_count": 7671,
        "MHW": 0.35167151079348297,
        "MHW_count": 12995,
        "MSL": 1.135256124538317e-06,
        "MSL_count": 184104,
        "MTL": -0.00391230322832539,
        "MTL_count": 7669,
        "MLW": -0.3772781192859583,
        "MLW_count": 13003,
        "MLLW": -0.46861264717491063,
        "MLLW_count": 7669,
        "LAT": -0.9314728379249573,
        "LAT_count": 7669,
        "tide_gauge_name": "base_prat-730a-chl-uhslc_rq"
    },
    {
        "index": 18,
        "Lat": -77.03333,
        "Lon": 163.18333,
        "HAT": 0.60885089635849,
        "HAT_count": 7477,
        "MHHW": 0.31409642829122675,
        "MHHW_count": 7477,
        "MHW": 0.23016653506918763,
        "MHW_count": 10176,
        "MSL": 3.471280150316724e-06,
        "MSL_count": 184104,
        "MTL": 0.010115809361478469,
        "MTL_count": 7360,
        "MLW": -0.22658706380798607,
        "MLW_count": 10176,
        "MLLW": -0.2836641605136147,
        "MLLW_count": 7554,
        "LAT": -0.6402401924133301,
        "LAT_count": 7554,
        "tide_gauge_name": "base_prat-730b-chl-uhslc_rq"
    },
    {
        "index": 19,
        "Lat": -8.5,
        "Lon": 110.783,
        "HAT": 1.3563520908355713,
        "HAT_count": 7671,
        "MHHW": 0.7613880050268309,
        "MHHW_count": 7671,
        "MHW": 0.5932295469027474,
        "MHW_count": 14787,
        "MSL": 3.464508059327794e-05,
        "MSL_count": 184104,
        "MTL": -0.004703123588943365,
        "MTL_count": 7659,
        "MLW": -0.5992423384675272,
        "MLW_count": 14789,
        "MLLW": -0.7238835496530803,
        "MLLW_count": 7659,
        "LAT": -1.3597631454467773,
        "LAT_count": 7659,
        "tide_gauge_name": "dallmann-682c-arg-uhslc_rq"
    },
    {
        "index": 20,
        "Lat": 51.78221,
        "Lon": 4.6258,
        "HAT": 0.5335278511047363,
        "HAT_count": 7671,
        "MHHW": 0.3182024446077739,
        "MHHW_count": 7671,
        "MHW": 0.2870597526013498,
        "MHW_count": 15362,
        "MSL": -2.465748002981152e-06,
        "MSL_count": 184104,
        "MTL": 0.015965523182690525,
        "MTL_count": 7671,
        "MLW": -0.25768404206432377,
        "MLW_count": 15361,
        "MLLW": -0.2874925512834566,
        "MLLW_count": 7671,
        "LAT": -0.4723791182041168,
        "LAT_count": 7671,
        "tide_gauge_name": "diego_ramirez-599a-chl-uhslc_rq"
    },
    {
        "index": 21,
        "Lat": 16.867,
        "Lon": -24.983,
        "HAT": 0.6355656981468201,
        "HAT_count": 7671,
        "MHHW": 0.3788414990922538,
        "MHHW_count": 7671,
        "MHW": 0.32650232718730837,
        "MHW_count": 14823,
        "MSL": 5.43707623842877e-06,
        "MSL_count": 184104,
        "MTL": -0.004151016725004246,
        "MTL_count": 7671,
        "MLW": -0.33431927674335554,
        "MLW_count": 14821,
        "MLLW": -0.3450337202629246,
        "MLLW_count": 7671,
        "LAT": -0.5584563612937927,
        "LAT_count": 7671,
        "tide_gauge_name": "puerto_williams-287a-chl-uhslc_rq"
    },
    {
        "index": 22,
        "Lat": 51.65915,
        "Lon": 4.37668,
        "HAT": 2.3508036136627197,
        "HAT_count": 7671,
        "MHHW": 1.6342949392804575,
        "MHHW_count": 7671,
        "MHW": 1.5968697398941205,
        "MHW_count": 14820,
        "MSL": -7.292233178066194e-05,
        "MSL_count": 184104,
        "MTL": 0.055076854797125076,
        "MTL_count": 7671,
        "MLW": -1.4951991100301627,
        "MLW_count": 14820,
        "MLLW": -1.6040856062146027,
        "MLLW_count": 7671,
        "LAT": -2.148747444152832,
        "LAT_count": 7671,
        "tide_gauge_name": "ushuaia-600-arg-uhslc_fd"
    },
    {
        "index": 23,
        "Lat": 1.817,
        "Lon": -78.73,
        "HAT": 1.996490716934204,
        "HAT_count": 7671,
        "MHHW": 1.2999893286333544,
        "MHHW_count": 7671,
        "MHW": 1.251051780265977,
        "MHW_count": 14821,
        "MSL": -1.9227219205351303e-05,
        "MSL_count": 184104,
        "MTL": 0.015013511207529223,
        "MTL_count": 7671,
        "MLW": -1.2275169031402229,
        "MLW_count": 14822,
        "MLLW": -1.3145810467931751,
        "MLLW_count": 7671,
        "LAT": -1.9770047664642334,
        "LAT_count": 7671,
        "tide_gauge_name": "macquarie_is-680-aus-uhslc_fd"
    },
    {
        "index": 24,
        "Lat": 16.017,
        "Lon": -86.033,
        "HAT": 0.28276288509368896,
        "HAT_count": 7671,
        "MHHW": 0.09068654804175533,
        "MHHW_count": 7671,
        "MHW": 0.08356549059369688,
        "MHW_count": 14828,
        "MSL": 1.5282557577695085e-08,
        "MSL_count": 184104,
        "MTL": 0.0013783653502333893,
        "MTL_count": 7671,
        "MLW": -0.08144083878219176,
        "MLW_count": 14825,
        "MLLW": -0.1134438199580893,
        "MLLW_count": 7671,
        "LAT": -0.2687053084373474,
        "LAT_count": 7671,
        "tide_gauge_name": "king_edward_point-kin-gbr-noc"
    },
    {
        "index": 25,
        "Lat": 18.733,
        "Lon": -111.017,
        "HAT": 0.9117814302444458,
        "HAT_count": 7641,
        "MHHW": 0.5280470550323239,
        "MHHW_count": 7641,
        "MHW": 0.4051880889009156,
        "MHW_count": 14560,
        "MSL": -9.739895089029779e-06,
        "MSL_count": 184104,
        "MTL": 0.0004145078846908576,
        "MTL_count": 7614,
        "MLW": -0.40307370353495453,
        "MLW_count": 14561,
        "MLLW": -0.5351360303607692,
        "MLLW_count": 7644,
        "LAT": -1.0101569890975952,
        "LAT_count": 7644,
        "tide_gauge_name": "port_stanley-290a-gbr-uhslc_rq"
    },
    {
        "index": 26,
        "Lat": 51.54394,
        "Lon": 3.86542,
        "HAT": 2.3988099098205566,
        "HAT_count": 7671,
        "MHHW": 1.6769531476514745,
        "MHHW_count": 7671,
        "MHW": 1.6371860677574972,
        "MHW_count": 14820,
        "MSL": -6.288220254790637e-05,
        "MSL_count": 184104,
        "MTL": 0.05227576886116227,
        "MTL_count": 7671,
        "MLW": -1.5392657633332911,
        "MLW_count": 14820,
        "MLLW": -1.651660311938482,
        "MLLW_count": 7671,
        "LAT": -2.2898266315460205,
        "LAT_count": 7671,
        "tide_gauge_name": "port_stanley-290-gbr-uhslc_fd"
    },
    {
        "index": 27,
        "Lat": 49.13,
        "Lon": -66.49,
        "HAT": 1.8921624422073364,
        "HAT_count": 7671,
        "MHHW": 1.201004042452231,
        "MHHW_count": 7671,
        "MHW": 0.9546809237681086,
        "MHW_count": 14822,
        "MSL": -5.793437756425515e-06,
        "MSL_count": 184104,
        "MTL": -0.013221040627731901,
        "MTL_count": 7671,
        "MLW": -0.9832953956989026,
        "MLW_count": 14822,
        "MLLW": -1.040885774828343,
        "MLLW_count": 7671,
        "LAT": -1.6900711059570312,
        "LAT_count": 7671,
        "tide_gauge_name": "stanley-sta-gbr-noc"
    },
    {
        "index": 28,
        "Lat": 18.567,
        "Lon": -72.35,
        "HAT": 0.5232298374176025,
        "HAT_count": 7671,
        "MHHW": 0.30531325443849217,
        "MHHW_count": 7671,
        "MHW": 0.22817875287563424,
        "MHW_count": 14820,
        "MSL": 1.6506719004244004e-06,
        "MSL_count": 184104,
        "MTL": -0.0009101407322057309,
        "MTL_count": 7671,
        "MLW": -0.22975907080562116,
        "MLW_count": 14822,
        "MLLW": -0.27600908533696356,
        "MLLW_count": 7671,
        "LAT": -0.46103575825691223,
        "LAT_count": 7671,
        "tide_gauge_name": "kerguelentg_60minute-ker-fra-cmems"
    },
    {
        "index": 29,
        "Lat": 49.23,
        "Lon": -124.81,
        "HAT": 1.9217077493667603,
        "HAT_count": 7671,
        "MHHW": 1.2307635619469097,
        "MHHW_count": 7671,
        "MHW": 1.0090362110904303,
        "MHW_count": 14821,
        "MSL": 1.3544790518935466e-05,
        "MSL_count": 184104,
        "MTL": 0.005967423804255675,
        "MTL_count": 7671,
        "MLW": -0.9923242890378762,
        "MLW_count": 14820,
        "MLLW": -1.329130525151072,
        "MLLW_count": 7671,
        "LAT": -2.1364006996154785,
        "LAT_count": 7671,
        "tide_gauge_name": "kerguelen-23-fra-refmar"
    },
    {
        "index": 30,
        "Lat": 59.9333,
        "Lon": 30.2667,
        "HAT": 0.32012951374053955,
        "HAT_count": 7586,
        "MHHW": 0.05964855357006619,
        "MHHW_count": 7586,
        "MHW": 0.03158293916762385,
        "MHW_count": 13482,
        "MSL": -3.911173472646604e-06,
        "MSL_count": 184104,
        "MTL": 0.0004028267753872825,
        "MTL_count": 7558,
        "MLW": -0.03479669093823839,
        "MLW_count": 13478,
        "MLLW": -0.047179394119452704,
        "MLLW_count": 7643,
        "LAT": -0.3000459372997284,
        "LAT_count": 7643,
        "tide_gauge_name": "kerguelen-180-fra-uhslc_fd"
    },
    {
        "index": 31,
        "Lat": 20.08028,
        "Lon": -90.57075,
        "HAT": 0.7862805724143982,
        "HAT_count": 7671,
        "MHHW": 0.3472727124948848,
        "MHHW_count": 7671,
        "MHW": 0.2838552600642957,
        "MHW_count": 14489,
        "MSL": 2.4513043860487996e-05,
        "MSL_count": 184104,
        "MTL": 0.008655576134976249,
        "MTL_count": 7669,
        "MLW": -0.2602679823505486,
        "MLW_count": 14490,
        "MLLW": -0.4886251628798023,
        "MLLW_count": 7669,
        "LAT": -1.0134122371673584,
        "LAT_count": 7669,
        "tide_gauge_name": "puerto_deseado-286b-arg-uhslc_rq"
    },
    {
        "index": 32,
        "Lat": 28.0,
        "Lon": -17.0,
        "HAT": 1.1649868488311768,
        "HAT_count": 7671,
        "MHHW": 0.6738768559541218,
        "MHHW_count": 7671,
        "MHW": 0.6160764433765299,
        "MHW_count": 14820,
        "MSL": 5.5051321729212155e-06,
        "MSL_count": 184104,
        "MTL": -0.0010193986098243565,
        "MTL_count": 7671,
        "MLW": -0.6144144610696485,
        "MLW_count": 14822,
        "MLLW": -0.6416883938332111,
        "MLLW_count": 7671,
        "LAT": -1.10063898563385,
        "LAT_count": 7671,
        "tide_gauge_name": "puerto_deseado-286-arg-uhslc_fd"
    },
    {
        "index": 33,
        "Lat": 38.43035,
        "Lon": 22.42278,
        "HAT": 0.33353325724601746,
        "HAT_count": 7671,
        "MHHW": 0.1759858936190419,
        "MHHW_count": 7671,
        "MHW": 0.1644895916227633,
        "MHW_count": 14857,
        "MSL": -7.434483825132022e-08,
        "MSL_count": 184104,
        "MTL": 0.001080470986345842,
        "MTL_count": 7671,
        "MLW": -0.16469950103618117,
        "MLW_count": 14858,
        "MLLW": -0.18234387365284108,
        "MLLW_count": 7671,
        "LAT": -0.3841404616832733,
        "LAT_count": 7671,
        "tide_gauge_name": "marion_island-920-zaf-uhslc_fd"
    },
    {
        "index": 34,
        "Lat": 40.63,
        "Lon": 22.91,
        "HAT": 0.33873066306114197,
        "HAT_count": 7671,
        "MHHW": 0.13641626638364568,
        "MHHW_count": 7671,
        "MHW": 0.1141987673743927,
        "MHW_count": 14829,
        "MSL": -1.0093437282212571e-06,
        "MSL_count": 184104,
        "MTL": 0.00015454932473901208,
        "MTL_count": 7670,
        "MLW": -0.11307239871851765,
        "MLW_count": 14829,
        "MLLW": -0.1287232387057283,
        "MLLW_count": 7670,
        "LAT": -0.27845585346221924,
        "LAT_count": 7670,
        "tide_gauge_name": "bluff-072-nzl-uhslc_fd"
    },
    {
        "index": 35,
        "Lat": -31.42679,
        "Lon": 152.91098,
        "HAT": 0.9922428727149963,
        "HAT_count": 7671,
        "MHHW": 0.5972077738366931,
        "MHHW_count": 7671,
        "MHW": 0.4510041430762428,
        "MHW_count": 14823,
        "MSL": -1.0371616102354585e-05,
        "MSL_count": 184104,
        "MTL": -0.0009539628717302889,
        "MTL_count": 7671,
        "MLW": -0.4529271388044242,
        "MLW_count": 14821,
        "MLLW": -0.49081250746835087,
        "MLLW_count": 7671,
        "LAT": -0.7245045900344849,
        "LAT_count": 7671,
        "tide_gauge_name": "bluff-072a-nzl-uhslc_rq"
    },
    {
        "index": 36,
        "Lat": 14.96,
        "Lon": 145.618,
        "HAT": 0.38870278000831604,
        "HAT_count": 7671,
        "MHHW": 0.24538854542129462,
        "MHHW_count": 7671,
        "MHW": 0.20778768434406597,
        "MHW_count": 14818,
        "MSL": -1.0273755588514316e-05,
        "MSL_count": 184104,
        "MTL": 0.012788779168470004,
        "MTL_count": 7671,
        "MLW": -0.18243404977234867,
        "MLW_count": 14818,
        "MLLW": -0.3460519759499574,
        "MLLW_count": 7671,
        "LAT": -0.7089419960975647,
        "LAT_count": 7671,
        "tide_gauge_name": "ilepossessioncrozettg_60minute-ile-fra-cmems"
    },
    {
        "index": 37,
        "Lat": 3.975,
        "Lon": 103.43,
        "HAT": 1.9954745769500732,
        "HAT_count": 7670,
        "MHHW": 1.0306696847294892,
        "MHHW_count": 7670,
        "MHW": 0.6503491160686875,
        "MHW_count": 14118,
        "MSL": 4.678148648960855e-05,
        "MSL_count": 184104,
        "MTL": 0.0005415890096597752,
        "MTL_count": 7633,
        "MLW": -0.6476721146949553,
        "MLW_count": 14117,
        "MLLW": -0.9787439435392516,
        "MLLW_count": 7634,
        "LAT": -1.8541203737258911,
        "LAT_count": 7634,
        "tide_gauge_name": "ile_possession_crozet-173-fra-refmar"
    },
    {
        "index": 38,
        "Lat": 32.373,
        "Lon": -64.703,
        "HAT": 0.756026566028595,
        "HAT_count": 7671,
        "MHHW": 0.4476573448052712,
        "MHHW_count": 7671,
        "MHW": 0.37497842411853766,
        "MHW_count": 14820,
        "MSL": -9.749329844419682e-07,
        "MSL_count": 184104,
        "MTL": -0.0019575145065963136,
        "MTL_count": 7671,
        "MLW": -0.37822929720593246,
        "MLW_count": 14822,
        "MLLW": -0.3949807288807229,
        "MLLW_count": 7671,
        "LAT": -0.6321563124656677,
        "LAT_count": 7671,
        "tide_gauge_name": "crozet-178-fra-uhslc_fd"
    },
    {
        "index": 39,
        "Lat": 33.76667,
        "Lon": 137.58333,
        "HAT": 0.8599299192428589,
        "HAT_count": 7671,
        "MHHW": 0.5011043171766816,
        "MHHW_count": 7671,
        "MHW": 0.46617766941442856,
        "MHW_count": 14804,
        "MSL": -1.8567877901915593e-05,
        "MSL_count": 184104,
        "MTL": 0.014015488864307056,
        "MTL_count": 7671,
        "MLW": -0.4419780859712868,
        "MLW_count": 14806,
        "MLLW": -0.6729806692540653,
        "MLLW_count": 7671,
        "LAT": -1.2847130298614502,
        "LAT_count": 7671,
        "tide_gauge_name": "puysegur_point-puyt-nzl-ttw"
    },
    {
        "index": 40,
        "Lat": 37.22121,
        "Lon": 13.07646,
        "HAT": 0.16668684780597687,
        "HAT_count": 7662,
        "MHHW": 0.06668187837035745,
        "MHHW_count": 7662,
        "MHW": 0.050093104987305404,
        "MHW_count": 14728,
        "MSL": -3.015128560477763e-07,
        "MSL_count": 184104,
        "MTL": -0.0015768466371622377,
        "MTL_count": 7649,
        "MLW": -0.05375897767988159,
        "MLW_count": 14727,
        "MLLW": -0.06496167116544642,
        "MLLW_count": 7658,
        "LAT": -0.1579766422510147,
        "LAT_count": 7658,
        "tide_gauge_name": "port_chalmers-669a-nzl-uhslc_rq"
    },
    {
        "index": 41,
        "Lat": 45.45367,
        "Lon": -0.92305,
        "HAT": 2.6809847354888916,
        "HAT_count": 7671,
        "MHHW": 1.714772599653476,
        "MHHW_count": 7671,
        "MHW": 1.6573933654509645,
        "MHW_count": 14822,
        "MSL": -6.445590851313928e-05,
        "MSL_count": 184104,
        "MTL": -0.0705139324452997,
        "MTL_count": 7671,
        "MLW": -1.8097528937550873,
        "MLW_count": 14823,
        "MLLW": -1.877088693157664,
        "MLLW_count": 7671,
        "LAT": -2.777249574661255,
        "LAT_count": 7671,
        "tide_gauge_name": "port_chalmers-otat-nzl-ttw"
    },
    {
        "index": 42,
        "Lat": 45.45367,
        "Lon": -0.92305,
        "HAT": 2.6810977458953857,
        "HAT_count": 7671,
        "MHHW": 1.7149087868493937,
        "MHHW_count": 7671,
        "MHW": 1.657489532844336,
        "MHW_count": 14822,
        "MSL": -6.44554474704236e-05,
        "MSL_count": 184104,
        "MTL": -0.07051407317913626,
        "MTL_count": 7671,
        "MLW": -1.809849396928042,
        "MLW_count": 14823,
        "MLLW": -1.8771973431864084,
        "MLLW_count": 7671,
        "LAT": -2.7774343490600586,
        "LAT_count": 7671,
        "tide_gauge_name": "timaru-665a-nzl-uhslc_rq"
    },
    {
        "index": 43,
        "Lat": 49.43183,
        "Lon": 0.11067,
        "HAT": 3.924396514892578,
        "HAT_count": 7671,
        "MHHW": 2.604055635272687,
        "MHHW_count": 7671,
        "MHW": 2.5085191798715036,
        "MHW_count": 15772,
        "MSL": 4.385622199513891e-05,
        "MSL_count": 184104,
        "MTL": -0.1032445652311537,
        "MTL_count": 7671,
        "MLW": -2.5909107476784574,
        "MLW_count": 15775,
        "MLLW": -2.9812000005671946,
        "MLLW_count": 7671,
        "LAT": -4.738214015960693,
        "LAT_count": 7671,
        "tide_gauge_name": "owenga-chit-nzl-ttw"
    },
    {
        "index": 44,
        "Lat": 5.25,
        "Lon": -52.62,
        "HAT": 1.4902997016906738,
        "HAT_count": 7671,
        "MHHW": 0.9378242643999006,
        "MHHW_count": 7671,
        "MHW": 0.8738429522549731,
        "MHW_count": 14822,
        "MSL": -1.9852600834542725e-05,
        "MSL_count": 184104,
        "MTL": 0.016472596779244862,
        "MTL_count": 7671,
        "MLW": -0.8464247459077494,
        "MLW_count": 14822,
        "MLLW": -0.9386395880295173,
        "MLLW_count": 7671,
        "LAT": -1.4435844421386719,
        "LAT_count": 7671,
        "tide_gauge_name": "jackson-403-nzl-uhslc_fd"
    },
    {
        "index": 45,
        "Lat": 20.687,
        "Lon": 58.872,
        "HAT": 1.2488064765930176,
        "HAT_count": 7671,
        "MHHW": 0.8337447179558846,
        "MHHW_count": 7671,
        "MHW": 0.704449553341247,
        "MHW_count": 14809,
        "MSL": 2.4361727230994824e-05,
        "MSL_count": 184104,
        "MTL": 0.03431451759467384,
        "MTL_count": 7671,
        "MLW": -0.6314488211423868,
        "MLW_count": 14810,
        "MLLW": -0.996410913423507,
        "MLLW_count": 7671,
        "LAT": -1.756938099861145,
        "LAT_count": 7671,
        "tide_gauge_name": "jackson_bay-65180-nzl-bom"
    },
    {
        "index": 46,
        "Lat": 51.3897,
        "Lon": 3.1986,
        "HAT": 2.846327304840088,
        "HAT_count": 7671,
        "MHHW": 1.920441319906421,
        "MHHW_count": 7671,
        "MHW": 1.8715692038285443,
        "MHW_count": 14821,
        "MSL": -1.716810161769419e-05,
        "MSL_count": 184104,
        "MTL": 0.106402639732654,
        "MTL_count": 7671,
        "MLW": -1.6584476847236778,
        "MLW_count": 14820,
        "MLLW": -1.7586814738239929,
        "MLLW_count": 7671,
        "LAT": -2.56288743019104,
        "LAT_count": 7671,
        "tide_gauge_name": "chatham-079-nzl-uhslc_fd"
    },
    {
        "index": 47,
        "Lat": 51.5046,
        "Lon": 3.2422,
        "HAT": 2.606771945953369,
        "HAT_count": 7671,
        "MHHW": 1.7738247076623708,
        "MHHW_count": 7671,
        "MHW": 1.7271711303808377,
        "MHW_count": 14818,
        "MSL": -1.7524150306663183e-05,
        "MSL_count": 184104,
        "MTL": 0.13164087928621462,
        "MTL_count": 7671,
        "MLW": -1.4628324108728674,
        "MLW_count": 14820,
        "MLLW": -1.5639014086112906,
        "MLLW_count": 7671,
        "LAT": -2.272688627243042,
        "LAT_count": 7671,
        "tide_gauge_name": "lyttelton-667a-nzl-uhslc_rq"
    },
    {
        "index": 48,
        "Lat": 51.64287,
        "Lon": 3.48105,
        "HAT": 2.2341253757476807,
        "HAT_count": 7671,
        "MHHW": 1.5124143933615835,
        "MHHW_count": 7671,
        "MHW": 1.47083325615296,
        "MHW_count": 14820,
        "MSL": -2.3374283578105514e-05,
        "MSL_count": 184104,
        "MTL": 0.12214055739879623,
        "MTL_count": 7671,
        "MLW": -1.2298851114770082,
        "MLW_count": 14821,
        "MLLW": -1.33832363175718,
        "MLLW_count": 7671,
        "LAT": -1.9109781980514526,
        "LAT_count": 7671,
        "tide_gauge_name": "sumner-sumt-nzl-ttw"
    },
    {
        "index": 49,
        "Lat": 51.73332,
        "Lon": 3.55485,
        "HAT": 2.0000901222229004,
        "HAT_count": 7671,
        "MHHW": 1.3618497622011538,
        "MHHW_count": 7671,
        "MHW": 1.3118376289159521,
        "MHW_count": 14826,
        "MSL": -2.6202703453527563e-05,
        "MSL_count": 184104,
        "MTL": 0.14023044399960208,
        "MTL_count": 7671,
        "MLW": -1.033673341769942,
        "MLW_count": 14829,
        "MLLW": -1.1434001652984012,
        "MLLW_count": 7671,
        "LAT": -1.720556378364563,
        "LAT_count": 7671,
        "tide_gauge_name": "new_brighton_pier-nbrt-nzl-ttw"
    },
    {
        "index": 50,
        "Lat": 51.76747,
        "Lon": 3.62193,
        "HAT": 2.075789451599121,
        "HAT_count": 7671,
        "MHHW": 1.391807536602704,
        "MHHW_count": 7671,
        "MHW": 1.298987149647313,
        "MHW_count": 15094,
        "MSL": -3.0591873550731804e-05,
        "MSL_count": 184104,
        "MTL": 0.14501977663605212,
        "MTL_count": 7671,
        "MLW": -1.0187090960114396,
        "MLW_count": 15095,
        "MLLW": -1.1264886020557336,
        "MLLW_count": 7671,
        "LAT": -1.5978155136108398,
        "LAT_count": 7671,
        "tide_gauge_name": "hobart-61220-aus-bom"
    },
    {
        "index": 51,
        "Lat": 51.76763,
        "Lon": 3.61712,
        "HAT": 1.8956912755966187,
        "HAT_count": 7671,
        "MHHW": 1.2906418819344194,
        "MHHW_count": 7671,
        "MHW": 1.2332419449444965,
        "MHW_count": 14884,
        "MSL": -2.830011732148661e-05,
        "MSL_count": 184104,
        "MTL": 0.13159397501061884,
        "MTL_count": 7671,
        "MLW": -0.9748115184165345,
        "MLW_count": 14885,
        "MLLW": -1.0834112257181068,
        "MLLW_count": 7671,
        "LAT": -1.5504268407821655,
        "LAT_count": 7671,
        "tide_gauge_name": "hobart-339a-aus-uhslc_rq"
    },
    {
        "index": 52,
        "Lat": 51.86313,
        "Lon": 3.86077,
        "HAT": 1.8256245851516724,
        "HAT_count": 7671,
        "MHHW": 1.2318500230185228,
        "MHHW_count": 7671,
        "MHW": 0.7270689914246937,
        "MHW_count": 19396,
        "MSL": -2.5801345006188954e-05,
        "MSL_count": 184104,
        "MTL": -0.0011677594796192024,
        "MTL_count": 7671,
        "MLW": -0.8135850106955582,
        "MLW_count": 19394,
        "MLLW": -0.9378979361487747,
        "MLLW_count": 7671,
        "LAT": -1.3431458473205566,
        "LAT_count": 7671,
        "tide_gauge_name": "puerto_madryn-731-arg-uhslc_fd"
    },
    {
        "index": 53,
        "Lat": 51.86408,
        "Lon": 3.86,
        "HAT": 1.7976871728897095,
        "HAT_count": 7671,
        "MHHW": 1.217526683757955,
        "MHHW_count": 7671,
        "MHW": 0.7426635874583382,
        "MHW_count": 19120,
        "MSL": -2.376731751928059e-05,
        "MSL_count": 184104,
        "MTL": 0.00902542907293075,
        "MTL_count": 7671,
        "MLW": -0.8053324243763001,
        "MLW_count": 19120,
        "MLLW": -0.9356151120461599,
        "MLLW_count": 7671,
        "LAT": -1.359649658203125,
        "LAT_count": 7671,
        "tide_gauge_name": "spring_bay-335-aus-uhslc_fd"
    },
    {
        "index": 54,
        "Lat": 51.9978,
        "Lon": 3.27504,
        "HAT": 1.330283284187317,
        "HAT_count": 7671,
        "MHHW": 0.9015830421390255,
        "MHHW_count": 7671,
        "MHW": 0.8481422177919442,
        "MHW_count": 14822,
        "MSL": -1.4769249633419186e-05,
        "MSL_count": 184104,
        "MTL": 0.0819137831161195,
        "MTL_count": 7671,
        "MLW": -0.6833535522793552,
        "MLW_count": 14822,
        "MLLW": -0.7957172970730764,
        "MLLW_count": 7671,
        "LAT": -1.1731053590774536,
        "LAT_count": 7671,
        "tide_gauge_name": "spring_bay-61170-aus-bom"
    },
    {
        "index": 55,
        "Lat": 51.99861,
        "Lon": 3.27639,
        "HAT": 1.4049996137619019,
        "HAT_count": 7671,
        "MHHW": 0.950272677343651,
        "MHHW_count": 7671,
        "MHW": 0.8923485385139909,
        "MHW_count": 14837,
        "MSL": -7.686035869106387e-06,
        "MSL_count": 184104,
        "MTL": 0.09189263321593633,
        "MTL_count": 7671,
        "MLW": -0.7059868752241263,
        "MLW_count": 14836,
        "MLLW": -0.8167755800141394,
        "MLLW_count": 7671,
        "LAT": -1.226820468902588,
        "LAT_count": 7671,
        "tide_gauge_name": "spring_bay-335a-aus-uhslc_rq"
    },
    {
        "index": 56,
        "Lat": 52.0,
        "Lon": 3.28,
        "HAT": 1.396629810333252,
        "HAT_count": 7671,
        "MHHW": 0.9423808495017171,
        "MHHW_count": 7671,
        "MHW": 0.8844452472128582,
        "MHW_count": 14830,
        "MSL": -6.020330094375363e-06,
        "MSL_count": 184104,
        "MTL": 0.08777362701803552,
        "MTL_count": 7671,
        "MLW": -0.7061437255820239,
        "MLW_count": 14828,
        "MLLW": -0.8169104819611082,
        "MLLW_count": 7671,
        "LAT": -1.2445822954177856,
        "LAT_count": 7671,
        "tide_gauge_name": "kaikoura-kait-nzl-ttw"
    },
    {
        "index": 57,
        "Lat": 52.27389,
        "Lon": 4.29611,
        "HAT": 1.495255947113037,
        "HAT_count": 7671,
        "MHHW": 0.9817244207831067,
        "MHHW_count": 7671,
        "MHW": 0.7195922136849826,
        "MHW_count": 17561,
        "MSL": -3.067496131535132e-05,
        "MSL_count": 184104,
        "MTL": 0.06728054502818573,
        "MTL_count": 7671,
        "MLW": -0.6104150264818916,
        "MLW_count": 17563,
        "MLLW": -0.7198029572588263,
        "MLLW_count": 7671,
        "LAT": -1.0904078483581543,
        "LAT_count": 7671,
        "tide_gauge_name": "charleston-chst-nzl-ttw"
    },
    {
        "index": 58,
        "Lat": 52.925,
        "Lon": 4.149,
        "HAT": 0.896232545375824,
        "HAT_count": 7671,
        "MHHW": 0.5545803602333719,
        "MHHW_count": 7671,
        "MHW": 0.4261515625547524,
        "MHW_count": 26029,
        "MSL": -1.4246995407774614e-05,
        "MSL_count": 184104,
        "MTL": 0.08346656097283091,
        "MTL_count": 7671,
        "MLW": -0.21123742075346255,
        "MLW_count": 26031,
        "MLLW": -0.6505838390680138,
        "MLLW_count": 7671,
        "LAT": -1.0964422225952148,
        "LAT_count": 7671,
        "tide_gauge_name": "west_port-074a-nzl-uhslc_rq"
    },
    {
        "index": 59,
        "Lat": 52.92535,
        "Lon": 4.15029,
        "HAT": 0.8745625615119934,
        "HAT_count": 7671,
        "MHHW": 0.5345102374606673,
        "MHHW_count": 7671,
        "MHW": 0.4212778180229453,
        "MHW_count": 23411,
        "MSL": -7.803756258643609e-06,
        "MSL_count": 184104,
        "MTL": 0.060507102320722796,
        "MTL_count": 7671,
        "MLW": -0.23848430447833846,
        "MLW_count": 23411,
        "MLLW": -0.6175764751351186,
        "MLLW_count": 7671,
        "LAT": -1.0273975133895874,
        "LAT_count": 7671,
        "tide_gauge_name": "puerto_montt-684a-chl-uhslc_rq"
    },
    {
        "index": 60,
        "Lat": 52.94059,
        "Lon": 4.64448,
        "HAT": 1.1921316385269165,
        "HAT_count": 7671,
        "MHHW": 0.7203902474318874,
        "MHHW_count": 7671,
        "MHW": 0.5638378038122014,
        "MHW_count": 24034,
        "MSL": 9.609055489970074e-06,
        "MSL_count": 184104,
        "MTL": 0.09493887665243471,
        "MTL_count": 7671,
        "MLW": -0.3109140514148207,
        "MLW_count": 24034,
        "MLLW": -0.8023032558378472,
        "MLLW_count": 7671,
        "LAT": -1.4066429138183594,
        "LAT_count": 7671,
        "tide_gauge_name": "puerto_montt-684-chl-uhslc_fd"
    },
    {
        "index": 61,
        "Lat": 53.12061,
        "Lon": 4.73319,
        "HAT": 1.2448979616165161,
        "HAT_count": 7671,
        "MHHW": 0.8171000036861048,
        "MHHW_count": 7671,
        "MHW": 0.6851058323596723,
        "MHW_count": 21463,
        "MSL": -4.374264835953105e-06,
        "MSL_count": 184104,
        "MTL": 0.07622096399874378,
        "MTL_count": 7671,
        "MLW": -0.4345348219641546,
        "MLW_count": 21460,
        "MLLW": -0.9252811610939574,
        "MLLW_count": 7671,
        "LAT": -1.4973901510238647,
        "LAT_count": 7671,
        "tide_gauge_name": "wellington-wlgt-nzl-ttw"
    },
    {
        "index": 62,
        "Lat": 53.12061,
        "Lon": 4.73319,
        "HAT": 1.1949663162231445,
        "HAT_count": 7671,
        "MHHW": 0.7735424004529138,
        "MHHW_count": 7671,
        "MHW": 0.671724162075666,
        "MHW_count": 17004,
        "MSL": -1.1846108150383173e-05,
        "MSL_count": 184104,
        "MTL": -0.016985318431046482,
        "MTL_count": 7671,
        "MLW": -0.6450685225788617,
        "MLW_count": 17005,
        "MLLW": -0.86424725301386,
        "MLLW_count": 7671,
        "LAT": -1.398219347000122,
        "LAT_count": 7671,
        "tide_gauge_name": "wellington-071-nzl-uhslc_fd"
    },
    {
        "index": 63,
        "Lat": 53.18969,
        "Lon": 4.79813,
        "HAT": 1.328833818435669,
        "HAT_count": 7671,
        "MHHW": 0.8475598456332463,
        "MHHW_count": 7671,
        "MHW": 0.7414179258318213,
        "MHW_count": 16991,
        "MSL": 2.598167034658034e-06,
        "MSL_count": 184104,
        "MTL": -0.015136707462900646,
        "MTL_count": 7671,
        "MLW": -0.6992581497789243,
        "MLW_count": 16988,
        "MLLW": -0.9362912281110286,
        "MLLW_count": 7671,
        "LAT": -1.4712607860565186,
        "LAT_count": 7671,
        "tide_gauge_name": "nelson-077a-nzl-uhslc_rq"
    },
    {
        "index": 64,
        "Lat": 53.217,
        "Lon": 3.21889,
        "HAT": 1.0903475284576416,
        "HAT_count": 7671,
        "MHHW": 0.6437014536151456,
        "MHHW_count": 7671,
        "MHW": 0.5443574835119456,
        "MHW_count": 14821,
        "MSL": -3.7037804873736856e-06,
        "MSL_count": 184104,
        "MTL": -0.01895642379453482,
        "MTL_count": 7671,
        "MLW": -0.5842625409376765,
        "MLW_count": 14822,
        "MLLW": -0.6285978580504877,
        "MLLW_count": 7671,
        "LAT": -1.0505523681640625,
        "LAT_count": 7671,
        "tide_gauge_name": "devonport-60930-aus-bom"
    },
    {
        "index": 65,
        "Lat": 53.218,
        "Lon": 3.219,
        "HAT": 1.1546001434326172,
        "HAT_count": 7671,
        "MHHW": 0.664058384804725,
        "MHHW_count": 7671,
        "MHW": 0.5651145565606321,
        "MHW_count": 14820,
        "MSL": -8.6151244436616e-06,
        "MSL_count": 184104,
        "MTL": -0.01973093713441118,
        "MTL_count": 7671,
        "MLW": -0.6076217692919933,
        "MLW_count": 14822,
        "MLLW": -0.6540982032996271,
        "MLLW_count": 7671,
        "LAT": -1.086318016052246,
        "LAT_count": 7671,
        "tide_gauge_name": "georgetown-60950-aus-bom"
    },
    {
        "index": 66,
        "Lat": 53.269,
        "Lon": 3.6262,
        "HAT": 1.096967101097107,
        "HAT_count": 7671,
        "MHHW": 0.6507171156733991,
        "MHHW_count": 7671,
        "MHW": 0.5549990665294503,
        "MHW_count": 14821,
        "MSL": -9.328400785357912e-06,
        "MSL_count": 184104,
        "MTL": -0.03765696913508332,
        "MTL_count": 7671,
        "MLW": -0.6325634882665313,
        "MLW_count": 14823,
        "MLLW": -0.6723537351904536,
        "MLLW_count": 7671,
        "LAT": -1.1086353063583374,
        "LAT_count": 7671,
        "tide_gauge_name": "low_head-60948-aus-bom"
    },
    {
        "index": 67,
        "Lat": 53.44248,
        "Lon": 5.33303,
        "HAT": 1.4268393516540527,
        "HAT_count": 7671,
        "MHHW": 0.9612280440686377,
        "MHHW_count": 7671,
        "MHW": 0.8626148054883188,
        "MHW_count": 14822,
        "MSL": 1.3119515052630368e-05,
        "MSL_count": 184104,
        "MTL": -0.08670169218862474,
        "MTL_count": 7671,
        "MLW": -1.0332093496961867,
        "MLW_count": 14822,
        "MLLW": -1.06492610052937,
        "MLLW_count": 7671,
        "LAT": -1.664263367652893,
        "LAT_count": 7671,
        "tide_gauge_name": "burnie-60910-aus-bom"
    },
    {
        "index": 68,
        "Lat": 53.44249,
        "Lon": 5.33303,
        "HAT": 1.4038009643554688,
        "HAT_count": 7671,
        "MHHW": 0.9340962896973629,
        "MHHW_count": 7671,
        "MHW": 0.8353883199099185,
        "MHW_count": 14822,
        "MSL": 1.4490974693365383e-06,
        "MSL_count": 184104,
        "MTL": -0.07361144275321421,
        "MTL_count": 7671,
        "MLW": -0.9784762833808827,
        "MLW_count": 14822,
        "MLLW": -1.0110788396075845,
        "MLLW_count": 7671,
        "LAT": -1.6193301677703857,
        "LAT_count": 7671,
        "tide_gauge_name": "burnie-344a-aus-uhslc_rq"
    },
    {
        "index": 69,
        "Lat": 53.4436,
        "Lon": 5.3334,
        "HAT": 1.3936108350753784,
        "HAT_count": 7671,
        "MHHW": 0.9514423386515423,
        "MHHW_count": 7671,
        "MHW": 0.8534288948813747,
        "MHW_count": 14822,
        "MSL": 1.0268211013512069e-05,
        "MSL_count": 184104,
        "MTL": -0.08386174392649433,
        "MTL_count": 7671,
        "MLW": -1.0185246719183785,
        "MLW_count": 14821,
        "MLLW": -1.0512076279024867,
        "MLLW_count": 7671,
        "LAT": -1.6650499105453491,
        "LAT_count": 7671,
        "tide_gauge_name": "castlepoint-cpit-nzl-ttw"
    },
    {
        "index": 70,
        "Lat": 53.51582,
        "Lon": 5.95826,
        "HAT": 1.4282524585723877,
        "HAT_count": 7671,
        "MHHW": 0.9867526367704929,
        "MHHW_count": 7671,
        "MHW": 0.8914173647021856,
        "MHW_count": 14851,
        "MSL": 2.3530797682778948e-05,
        "MSL_count": 184104,
        "MTL": -0.09717246310390668,
        "MTL_count": 7671,
        "MLW": -1.0805423272358448,
        "MLW_count": 14850,
        "MLLW": -1.1187858451121386,
        "MLLW_count": 7671,
        "LAT": -1.73375403881073,
        "LAT_count": 7671,
        "tide_gauge_name": "wanganui-075a-nzl-uhslc_rq"
    },
    {
        "index": 71,
        "Lat": 53.51583,
        "Lon": 5.95826,
        "HAT": 1.4340163469314575,
        "HAT_count": 7671,
        "MHHW": 0.9657436653091706,
        "MHHW_count": 7671,
        "MHW": 0.8719524157110005,
        "MHW_count": 14822,
        "MSL": 1.2459979431519712e-05,
        "MSL_count": 184104,
        "MTL": -0.0841429727135397,
        "MTL_count": 7671,
        "MLW": -1.035553593348395,
        "MLW_count": 14820,
        "MLLW": -1.0714523970824366,
        "MLLW_count": 7671,
        "LAT": -1.664691686630249,
        "LAT_count": 7671,
        "tide_gauge_name": "napier-668a-nzl-uhslc_rq"
    },
    {
        "index": 72,
        "Lat": 53.517,
        "Lon": 5.9588,
        "HAT": 1.3886795043945312,
        "HAT_count": 7671,
        "MHHW": 0.9773553885376729,
        "MHHW_count": 7671,
        "MHW": 0.8814406934078032,
        "MHW_count": 14847,
        "MSL": 2.6757210260671936e-05,
        "MSL_count": 184104,
        "MTL": -0.09298174277542472,
        "MTL_count": 7671,
        "MLW": -1.062005656273586,
        "MLW_count": 14848,
        "MLLW": -1.100215588367649,
        "MLLW_count": 7671,
        "LAT": -1.7255768775939941,
        "LAT_count": 7671,
        "tide_gauge_name": "napier-napt-nzl-ttw"
    },
    {
        "index": 73,
        "Lat": 53.56529,
        "Lon": 6.61326,
        "HAT": 1.654117226600647,
        "HAT_count": 7671,
        "MHHW": 1.1774317909757157,
        "MHHW_count": 7671,
        "MHW": 1.087920688817755,
        "MHW_count": 14818,
        "MSL": 4.7507287800630615e-05,
        "MSL_count": 184104,
        "MTL": -0.05019593919946956,
        "MTL_count": 7671,
        "MLW": -1.1820989643501183,
        "MLW_count": 14822,
        "MLLW": -1.2211546778228226,
        "MLLW_count": 7671,
        "LAT": -1.9279662370681763,
        "LAT_count": 7671,
        "tide_gauge_name": "taranaki-076a-nzl-uhslc_rq"
    },
    {
        "index": 74,
        "Lat": 53.566,
        "Lon": 4.87,
        "HAT": 1.2062588930130005,
        "HAT_count": 7671,
        "MHHW": 0.7889108626095945,
        "MHHW_count": 7671,
        "MHW": 0.700650010523872,
        "MHW_count": 14822,
        "MSL": -2.5520000380308454e-06,
        "MSL_count": 184104,
        "MTL": -0.05693926849855225,
        "MTL_count": 7671,
        "MLW": -0.8146841782525738,
        "MLW_count": 14819,
        "MLLW": -0.8489415975091604,
        "MLLW_count": 7671,
        "LAT": -1.3513720035552979,
        "LAT_count": 7671,
        "tide_gauge_name": "ilesaintpaultg_60minute-ile-fra-cmems"
    },
    {
        "index": 75,
        "Lat": 53.57,
        "Lon": 6.4,
        "HAT": 1.4845354557037354,
        "HAT_count": 7671,
        "MHHW": 1.0529392823069927,
        "MHHW_count": 7671,
        "MHW": 0.9581909500549738,
        "MHW_count": 14954,
        "MSL": 3.381924063637838e-05,
        "MSL_count": 184104,
        "MTL": -0.08412682612906304,
        "MTL_count": 7671,
        "MLW": -1.1154560142776238,
        "MLW_count": 14952,
        "MLLW": -1.171405998906168,
        "MLLW_count": 7671,
        "LAT": -1.834776520729065,
        "LAT_count": 7671,
        "tide_gauge_name": "ile_saint_paul-194-fra-refmar"
    },
    {
        "index": 76,
        "Lat": 53.57375,
        "Lon": 6.39843,
        "HAT": 1.515031337738037,
        "HAT_count": 7671,
        "MHHW": 1.06591413238185,
        "MHHW_count": 7671,
        "MHW": 0.9720333752805194,
        "MHW_count": 14907,
        "MSL": 2.9825958610912437e-05,
        "MSL_count": 184104,
        "MTL": -0.08814829148927929,
        "MTL_count": 7671,
        "MLW": -1.1387554314256139,
        "MLW_count": 14907,
        "MLLW": -1.1880815256226251,
        "MLLW_count": 7671,
        "LAT": -1.832377314567566,
        "LAT_count": 7671,
        "tide_gauge_name": "saint_paul-179-fra-uhslc_fd"
    },
    {
        "index": 77,
        "Lat": 53.61667,
        "Lon": 4.96667,
        "HAT": 1.178359866142273,
        "HAT_count": 7671,
        "MHHW": 0.766143449187947,
        "MHHW_count": 7671,
        "MHW": 0.676890394595483,
        "MHW_count": 14822,
        "MSL": 1.1518084830102875e-05,
        "MSL_count": 184104,
        "MTL": -0.04645102140623809,
        "MTL_count": 7671,
        "MLW": -0.7685210044426635,
        "MLW_count": 14820,
        "MLLW": -0.7998801362575103,
        "MLLW_count": 7671,
        "LAT": -1.2977977991104126,
        "LAT_count": 7671,
        "tide_gauge_name": "port_welshpool_pier-60590-aus-bom"
    },
    {
        "index": 78,
        "Lat": 53.64079,
        "Lon": 8.44619,
        "HAT": 2.2226407527923584,
        "HAT_count": 7671,
        "MHHW": 1.6176086038005288,
        "MHHW_count": 7671,
        "MHW": 1.5338226791762057,
        "MHW_count": 14821,
        "MSL": 4.167582905834186e-06,
        "MSL_count": 184104,
        "MTL": -0.09636564757073547,
        "MTL_count": 7671,
        "MLW": -1.7328027625083602,
        "MLW_count": 14819,
        "MLLW": -1.8051908412559017,
        "MLLW_count": 7671,
        "LAT": -2.5867667198181152,
        "LAT_count": 7671,
        "tide_gauge_name": "gisborne-078a-nzl-uhslc_rq"
    },
    {
        "index": 79,
        "Lat": 53.72021,
        "Lon": 8.30858,
        "HAT": 2.1784284114837646,
        "HAT_count": 7671,
        "MHHW": 1.5743336394874046,
        "MHHW_count": 7671,
        "MHW": 1.4910528877054594,
        "MHW_count": 14822,
        "MSL": 1.598184215773297e-05,
        "MSL_count": 184104,
        "MTL": -0.051364131963056565,
        "MTL_count": 7671,
        "MLW": -1.5981719298642656,
        "MLW_count": 14820,
        "MLLW": -1.6692075741880021,
        "MLLW_count": 7671,
        "LAT": -2.4212236404418945,
        "LAT_count": 7671,
        "tide_gauge_name": "gisborne-gist-nzl-ttw"
    },
    {
        "index": 80,
        "Lat": 53.81663,
        "Lon": 2.95001,
        "HAT": 1.2786314487457275,
        "HAT_count": 7671,
        "MHHW": 0.7988695367042127,
        "MHHW_count": 7671,
        "MHW": 0.7129240761364123,
        "MHW_count": 14822,
        "MSL": 5.32821249035492e-06,
        "MSL_count": 184104,
        "MTL": 0.003070426279335679,
        "MTL_count": 7671,
        "MLW": -0.7095820752203018,
        "MLW_count": 14823,
        "MLLW": -0.7671947326778729,
        "MLLW_count": 7671,
        "LAT": -1.277877926826477,
        "LAT_count": 7671,
        "tide_gauge_name": "lorne-60790-aus-bom"
    },
    {
        "index": 81,
        "Lat": 53.82325,
        "Lon": 2.9438,
        "HAT": 1.3327242136001587,
        "HAT_count": 7671,
        "MHHW": 0.8230653032339966,
        "MHHW_count": 7671,
        "MHW": 0.7376365799754918,
        "MHW_count": 14822,
        "MSL": -4.658235767313546e-06,
        "MSL_count": 184104,
        "MTL": 0.0037691677838650687,
        "MTL_count": 7671,
        "MLW": -0.7342279875829474,
        "MLW_count": 14820,
        "MLLW": -0.7950286210018409,
        "MLLW_count": 7671,
        "LAT": -1.304129719734192,
        "LAT_count": 7671,
        "tide_gauge_name": "western_port_stony_point-60710-aus-bom"
    },
    {
        "index": 82,
        "Lat": 53.85796,
        "Lon": 9.03271,
        "HAT": 1.7823519706726074,
        "HAT_count": 7671,
        "MHHW": 1.2767995522620859,
        "MHHW_count": 7671,
        "MHW": 1.1907348863473346,
        "MHW_count": 14821,
        "MSL": -2.0849235764928966e-05,
        "MSL_count": 184104,
        "MTL": -0.07145710161141702,
        "MTL_count": 7671,
        "MLW": -1.3399003364965667,
        "MLW_count": 14821,
        "MLLW": -1.4005278924689146,
        "MLLW_count": 7671,
        "LAT": -2.027184009552002,
        "LAT_count": 7671,
        "tide_gauge_name": "portland-61410-aus-bom"
    },
    {
        "index": 83,
        "Lat": 53.94368,
        "Lon": 8.63722,
        "HAT": 2.022878408432007,
        "HAT_count": 7671,
        "MHHW": 1.4550200815757768,
        "MHHW_count": 7671,
        "MHW": 1.367629421013874,
        "MHW_count": 14821,
        "MSL": 4.392904318596026e-06,
        "MSL_count": 184104,
        "MTL": -0.04139303462537357,
        "MTL_count": 7671,
        "MLW": -1.4543894846730046,
        "MLW_count": 14821,
        "MLLW": -1.5239043991345964,
        "MLLW_count": 7671,
        "LAT": -2.226292371749878,
        "LAT_count": 7671,
        "tide_gauge_name": "portland_saus-129-aus-uhslc_fd"
    },
    {
        "index": 84,
        "Lat": 53.95711,
        "Lon": 8.65925,
        "HAT": 1.9966909885406494,
        "HAT_count": 7671,
        "MHHW": 1.4325156968274897,
        "MHHW_count": 7671,
        "MHW": 1.3448209638112052,
        "MHW_count": 14822,
        "MSL": 6.610575934863694e-06,
        "MSL_count": 184104,
        "MTL": -0.042893708272826306,
        "MTL_count": 7671,
        "MLW": -1.4344592318813452,
        "MLW_count": 14822,
        "MLLW": -1.5031948847653207,
        "MLLW_count": 7671,
        "LAT": -2.211876630783081,
        "LAT_count": 7671,
        "tide_gauge_name": "hovell_pile-60721-aus-bom"
    },
    {
        "index": 85,
        "Lat": 54.11667,
        "Lon": 4.01222,
        "HAT": 0.9099780917167664,
        "HAT_count": 7671,
        "MHHW": 0.5834076481107285,
        "MHHW_count": 7671,
        "MHW": 0.5141423739084194,
        "MHW_count": 14821,
        "MSL": 1.032044285484141e-05,
        "MSL_count": 184104,
        "MTL": 0.006867547952649137,
        "MTL_count": 7671,
        "MLW": -0.5011757766286816,
        "MLW_count": 14822,
        "MLLW": -0.5361936499084585,
        "MLLW_count": 7671,
        "LAT": -0.9252657890319824,
        "LAT_count": 7671,
        "tide_gauge_name": "point_lonsdale-60730-aus-bom"
    },
    {
        "index": 86,
        "Lat": 54.31665,
        "Lon": 2.93335,
        "HAT": 1.2081823348999023,
        "HAT_count": 7671,
        "MHHW": 0.7498551140846632,
        "MHHW_count": 7671,
        "MHW": 0.6860234143742504,
        "MHW_count": 14822,
        "MSL": -4.48503646307085e-06,
        "MSL_count": 184104,
        "MTL": 0.028815371359243648,
        "MTL_count": 7671,
        "MLW": -0.6323947451879035,
        "MLW_count": 14822,
        "MLLW": -0.6819512459503254,
        "MLLW_count": 7671,
        "LAT": -1.1282821893692017,
        "LAT_count": 7671,
        "tide_gauge_name": "queenscliff-60732-aus-bom"
    },
    {
        "index": 87,
        "Lat": 54.32567,
        "Lon": 2.93575,
        "HAT": 1.1464287042617798,
        "HAT_count": 7671,
        "MHHW": 0.7240408247708497,
        "MHHW_count": 7671,
        "MHW": 0.660535718335716,
        "MHW_count": 14820,
        "MSL": 1.8033702441645415e-06,
        "MSL_count": 184104,
        "MTL": 0.02308606266540275,
        "MTL_count": 7671,
        "MLW": -0.6174347160690437,
        "MLW_count": 14822,
        "MLLW": -0.665777929641016,
        "MLLW_count": 7671,
        "LAT": -1.1026520729064941,
        "LAT_count": 7671,
        "tide_gauge_name": "west_channel_pile-60739-aus-bom"
    },
    {
        "index": 88,
        "Lat": 54.85,
        "Lon": 4.72,
        "HAT": 0.5223543643951416,
        "HAT_count": 7671,
        "MHHW": 0.31283846735301596,
        "MHHW_count": 7671,
        "MHW": 0.12710207118552563,
        "MHW_count": 21959,
        "MSL": 9.48735990266361e-06,
        "MSL_count": 184104,
        "MTL": -0.031123114083423508,
        "MTL_count": 7671,
        "MLW": -0.20799489284466685,
        "MLW_count": 21962,
        "MLLW": -0.24602532083113507,
        "MLLW_count": 7671,
        "LAT": -0.4905427098274231,
        "LAT_count": 7671,
        "tide_gauge_name": "geelong-60770-aus-bom"
    },
    {
        "index": 89,
        "Lat": 55.2833,
        "Lon": 8.5833,
        "HAT": 1.1095123291015625,
        "HAT_count": 7671,
        "MHHW": 0.7087014106301033,
        "MHHW_count": 7671,
        "MHW": 0.6373235501601313,
        "MHW_count": 14822,
        "MSL": -1.139294714100129e-05,
        "MSL_count": 184104,
        "MTL": -0.01845088196353497,
        "MTL_count": 7671,
        "MLW": -0.6764038124628234,
        "MLW_count": 14820,
        "MLLW": -0.7086528746886882,
        "MLLW_count": 7671,
        "LAT": -0.9969924688339233,
        "LAT_count": 7671,
        "tide_gauge_name": "point_richards_corio_bay-60757-aus-bom"
    },
    {
        "index": 90,
        "Lat": 55.38333,
        "Lon": 3.8,
        "HAT": 0.5411105751991272,
        "HAT_count": 7671,
        "MHHW": 0.32574790559894584,
        "MHHW_count": 7671,
        "MHW": 0.2856837272338399,
        "MHW_count": 14821,
        "MSL": 1.2673681136493862e-05,
        "MSL_count": 184104,
        "MTL": -0.0003938369717785178,
        "MTL_count": 7671,
        "MLW": -0.28808594376303276,
        "MLW_count": 14819,
        "MLLW": -0.3024133593723005,
        "MLLW_count": 7671,
        "LAT": -0.5552654266357422,
        "LAT_count": 7671,
        "tide_gauge_name": "mar_del_plata-729a-arg-uhslc_rq"
    },
    {
        "index": 91,
        "Lat": 55.4,
        "Lon": 3.81,
        "HAT": 0.5739763975143433,
        "HAT_count": 7671,
        "MHHW": 0.3410969053317027,
        "MHHW_count": 7671,
        "MHW": 0.3004473827280644,
        "MHW_count": 14822,
        "MSL": 6.302842606777373e-06,
        "MSL_count": 184104,
        "MTL": 0.000541898503408113,
        "MTL_count": 7671,
        "MLW": -0.3009630761777701,
        "MLW_count": 14821,
        "MLLW": -0.3159312521547114,
        "MLLW_count": 7671,
        "LAT": -0.5638479590415955,
        "LAT_count": 7671,
        "tide_gauge_name": "mar_del_plata-729-arg-uhslc_fd"
    },
    {
        "index": 92,
        "Lat": 55.561,
        "Lon": 12.8095,
        "HAT": 0.14465153217315674,
        "HAT_count": 7671,
        "MHHW": 0.05069407597133076,
        "MHHW_count": 7671,
        "MHW": 0.038625389575842536,
        "MHW_count": 15030,
        "MSL": 1.1837753639154354e-05,
        "MSL_count": 184104,
        "MTL": -0.001242383890887633,
        "MTL_count": 7671,
        "MLW": -0.041437453751865486,
        "MLW_count": 15028,
        "MLLW": -0.04806471805240206,
        "MLLW_count": 7671,
        "LAT": -0.15844415128231049,
        "LAT_count": 7671,
        "tide_gauge_name": "mar_del_plata-729b-arg-uhslc_rq"
    },
    {
        "index": 93,
        "Lat": 56.39904,
        "Lon": 2.06402,
        "HAT": 0.7688454985618591,
        "HAT_count": 7671,
        "MHHW": 0.4884057998921411,
        "MHHW_count": 7671,
        "MHW": 0.4513130405769843,
        "MHW_count": 14821,
        "MSL": 3.5639058138940616e-06,
        "MSL_count": 184104,
        "MTL": 0.0042872872076190754,
        "MTL_count": 7671,
        "MLW": -0.44499866839439467,
        "MLW_count": 14822,
        "MLLW": -0.48416663706885404,
        "MLLW_count": 7671,
        "LAT": -0.815039336681366,
        "LAT_count": 7671,
        "tide_gauge_name": "lakes_entrance_inner_bullock_island-6057a-aus-bom"
    },
    {
        "index": 94,
        "Lat": 59.7119,
        "Lon": 24.7314,
        "HAT": 0.1492781937122345,
        "HAT_count": 7438,
        "MHHW": 0.022338430074523175,
        "MHHW_count": 7438,
        "MHW": 0.010078894989779777,
        "MHW_count": 10806,
        "MSL": 2.1035094867401628e-05,
        "MSL_count": 184104,
        "MTL": -0.0016730183907770492,
        "MTL_count": 7295,
        "MLW": -0.024645902388049857,
        "MLW_count": 10805,
        "MLLW": -0.024830075755521087,
        "MLLW_count": 7528,
        "LAT": -0.19323769211769104,
        "LAT_count": 7528,
        "tide_gauge_name": "melbourne_williamstown-60780-aus-bom"
    },
    {
        "index": 95,
        "Lat": 60.6333,
        "Lon": 17.9667,
        "HAT": 0.10521039366722107,
        "HAT_count": 7633,
        "MHHW": 0.010684052426316468,
        "MHHW_count": 7633,
        "MHW": 0.0043703056761970095,
        "MHW_count": 13685,
        "MSL": 9.362247754187235e-06,
        "MSL_count": 184104,
        "MTL": -0.0013492214932171937,
        "MTL_count": 7436,
        "MLW": -0.009910543413437622,
        "MLW_count": 13686,
        "MLLW": -0.013321417801572968,
        "MLLW_count": 7474,
        "LAT": -0.17050758004188538,
        "LAT_count": 7474,
        "tide_gauge_name": "tauranga-073a-nzl-uhslc_rq"
    },
    {
        "index": 96,
        "Lat": 60.6333,
        "Lon": 17.9667,
        "HAT": 0.1052161306142807,
        "HAT_count": 7633,
        "MHHW": 0.010683377958828772,
        "MHHW_count": 7633,
        "MHW": 0.0043918986813933315,
        "MHW_count": 13686,
        "MSL": 9.362539388467125e-06,
        "MSL_count": 184104,
        "MTL": -0.0013491995793888992,
        "MTL_count": 7436,
        "MLW": -0.00989470193494811,
        "MLW_count": 13686,
        "MLLW": -0.013321961793542685,
        "MLLW_count": 7474,
        "LAT": -0.17050310969352722,
        "LAT_count": 7474,
        "tide_gauge_name": "tauranga-taut-nzl-ttw"
    },
    {
        "index": 97,
        "Lat": 61.23949,
        "Lon": 1.14765,
        "HAT": 0.9456649422645569,
        "HAT_count": 7671,
        "MHHW": 0.5899407138566961,
        "MHHW_count": 7671,
        "MHW": 0.5276017279204948,
        "MHW_count": 14822,
        "MSL": 2.205706605879279e-05,
        "MSL_count": 184104,
        "MTL": -9.265714656658455e-06,
        "MTL_count": 7671,
        "MLW": -0.5238170207992966,
        "MLW_count": 14822,
        "MLLW": -0.5680347933657219,
        "MLLW_count": 7671,
        "LAT": -1.0194764137268066,
        "LAT_count": 7671,
        "tide_gauge_name": "lottin_point-lott-nzl-ttw"
    },
    {
        "index": 98,
        "Lat": 61.34,
        "Lon": 1.16,
        "HAT": 0.9667553305625916,
        "HAT_count": 7671,
        "MHHW": 0.6063495076684812,
        "MHHW_count": 7671,
        "MHW": 0.5440960065810085,
        "MHW_count": 14823,
        "MSL": 2.9661355846954977e-05,
        "MSL_count": 184104,
        "MTL": 0.0005369393433165489,
        "MTL_count": 7671,
        "MLW": -0.5397505000087857,
        "MLW_count": 14820,
        "MLLW": -0.5864084196091087,
        "MLLW_count": 7671,
        "LAT": -1.06904935836792,
        "LAT_count": 7671,
        "tide_gauge_name": "eden-60530-aus-bom"
    },
    {
        "index": 99,
        "Lat": 54.06038,
        "Lon": 14.00082,
        "HAT": 0.10618554055690765,
        "HAT_count": 7667,
        "MHHW": 0.02615527341050341,
        "MHHW_count": 7667,
        "MHW": 0.014522260322519909,
        "MHW_count": 14610,
        "MSL": 8.967936471117238e-06,
        "MSL_count": 184104,
        "MTL": -0.0003086201517620175,
        "MTL_count": 7667,
        "MLW": -0.015679744700210316,
        "MLW_count": 14611,
        "MLLW": -0.02052317861756087,
        "MLLW_count": 7671,
        "LAT": -0.12473799288272858,
        "LAT_count": 7671,
        "tide_gauge_name": "tristan_da_cunha-722a-gbr-uhslc_rq"
    },
    {
        "index": 100,
        "Lat": -41.283,
        "Lon": 174.783,
        "HAT": 0.7569535970687866,
        "HAT_count": 7671,
        "MHHW": 0.5368742968956536,
        "MHHW_count": 7671,
        "MHW": 0.5012040876596613,
        "MHW_count": 14821,
        "MSL": -1.3794975970311528e-05,
        "MSL_count": 184104,
        "MTL": 0.007968078448715136,
        "MTL_count": 7671,
        "MLW": -0.4847552740868247,
        "MLW_count": 14822,
        "MLLW": -0.4957201204171253,
        "MLLW_count": 7671,
        "LAT": -0.6916812658309937,
        "LAT_count": 7671,
        "tide_gauge_name": "manukau-mnkt-nzl-ttw"
    },
    {
        "index": 101,
        "Lat": 40.3899,
        "Lon": 27.8452,
        "HAT": 0.14407658576965332,
        "HAT_count": 7606,
        "MHHW": 0.02038370436253634,
        "MHHW_count": 7606,
        "MHW": 0.006572622898493037,
        "MHW_count": 12677,
        "MSL": 1.2366359369995405e-06,
        "MSL_count": 184104,
        "MTL": -0.00012994281280412917,
        "MTL_count": 7582,
        "MLW": -0.01688906635818067,
        "MLW_count": 12676,
        "MLLW": -0.01648941679173247,
        "MLLW_count": 7647,
        "LAT": -0.14195694029331207,
        "LAT_count": 7647,
        "tide_gauge_name": "auckland-070a-nzl-uhslc_rq"
    },
    {
        "index": 102,
        "Lat": 76.0,
        "Lon": -68.0,
        "HAT": 1.8976659774780273,
        "HAT_count": 7671,
        "MHHW": 1.1419653337224958,
        "MHHW_count": 7671,
        "MHW": 0.8476914261631071,
        "MHW_count": 14821,
        "MSL": 8.804847053385508e-06,
        "MSL_count": 184104,
        "MTL": -0.009913150687721702,
        "MTL_count": 7671,
        "MLW": -0.8610019688365694,
        "MLW_count": 14822,
        "MLLW": -0.9838849495258171,
        "MLLW_count": 7671,
        "LAT": -1.6278345584869385,
        "LAT_count": 7671,
        "tide_gauge_name": "auckland-auct-nzl-ttw"
    },
    {
        "index": 103,
        "Lat": 78.938,
        "Lon": 11.938,
        "HAT": 0.8514900207519531,
        "HAT_count": 7671,
        "MHHW": 0.5321185403072357,
        "MHHW_count": 7671,
        "MHW": 0.4796672973034353,
        "MHW_count": 14822,
        "MSL": 1.2677264501829679e-05,
        "MSL_count": 184104,
        "MTL": -0.001952246642464205,
        "MTL_count": 7671,
        "MLW": -0.48232416399230427,
        "MLW_count": 14822,
        "MLLW": -0.5091641514302621,
        "MLLW_count": 7671,
        "LAT": -0.9440173506736755,
        "LAT_count": 7671,
        "tide_gauge_name": "bermagui-219470-aus-bom"
    },
    {
        "index": 104,
        "Lat": 8.117,
        "Lon": 73.05,
        "HAT": 0.6292645931243896,
        "HAT_count": 7670,
        "MHHW": 0.37134356430408116,
        "MHHW_count": 7670,
        "MHW": 0.28423483759432516,
        "MHW_count": 14754,
        "MSL": 5.017756552235175e-06,
        "MSL_count": 184104,
        "MTL": 0.008189504427413863,
        "MTL_count": 7670,
        "MLW": -0.2682944785757122,
        "MLW_count": 14753,
        "MLLW": -0.43812749811107893,
        "MLLW_count": 7671,
        "LAT": -0.8248888254165649,
        "LAT_count": 7671,
        "tide_gauge_name": "korotiti_bay-gbit-nzl-ttw"
    },
    {
        "index": 105,
        "Lat": 55.6274,
        "Lon": -6.1901,
        "HAT": 0.521833062171936,
        "HAT_count": 7671,
        "MHHW": 0.2702181075580689,
        "MHHW_count": 7671,
        "MHW": 0.17595394511141474,
        "MHW_count": 23057,
        "MSL": -8.431933594162752e-07,
        "MSL_count": 184104,
        "MTL": 0.026271578149166214,
        "MTL_count": 7671,
        "MLW": -0.1195050620575159,
        "MLW_count": 23049,
        "MLLW": -0.3091872287184645,
        "MLLW_count": 7671,
        "LAT": -0.6656334400177002,
        "LAT_count": 7671,
        "tide_gauge_name": "marsden_point-398a-nzl-uhslc_rq"
    },
    {
        "index": 106,
        "Lat": 55.62758,
        "Lon": -6.18992,
        "HAT": 0.5250519514083862,
        "HAT_count": 7671,
        "MHHW": 0.27149175129969166,
        "MHHW_count": 7671,
        "MHW": 0.17488123120697296,
        "MHW_count": 23338,
        "MSL": -1.492729497416964e-06,
        "MSL_count": 184104,
        "MTL": 0.026244447414939913,
        "MTL_count": 7671,
        "MLW": -0.11853314031709145,
        "MLW_count": 23331,
        "MLLW": -0.30996193979119413,
        "MLLW_count": 7671,
        "LAT": -0.6654758453369141,
        "LAT_count": 7671,
        "tide_gauge_name": "batemans_bay_princess_jetty-216410-aus-bom"
    },
    {
        "index": 107,
        "Lat": 1.325,
        "Lon": 103.443,
        "HAT": 2.1149656772613525,
        "HAT_count": 7671,
        "MHHW": 1.3093626737097317,
        "MHHW_count": 7671,
        "MHW": 1.0009799633393206,
        "MHW_count": 14828,
        "MSL": -2.0736337052878354e-05,
        "MSL_count": 184104,
        "MTL": -0.01400734135414132,
        "MTL_count": 7671,
        "MLW": -1.0203482777905504,
        "MLW_count": 14825,
        "MLLW": -1.1607740797367607,
        "MLLW_count": 7671,
        "LAT": -1.8086249828338623,
        "LAT_count": 7671,
        "tide_gauge_name": "cape_jervis-61561-aus-bom"
    },
    {
        "index": 108,
        "Lat": -34.183,
        "Lon": 22.133,
        "HAT": 1.2303088903427124,
        "HAT_count": 7671,
        "MHHW": 0.7015865961539669,
        "MHHW_count": 7671,
        "MHW": 0.6529268916721946,
        "MHW_count": 14822,
        "MSL": -4.9078763929094e-06,
        "MSL_count": 184104,
        "MTL": 0.010484767376396222,
        "MTL_count": 7671,
        "MLW": -0.6358404583156294,
        "MLW_count": 14822,
        "MLLW": -0.6782540381692904,
        "MLLW_count": 7671,
        "LAT": -1.1154390573501587,
        "LAT_count": 7671,
        "tide_gauge_name": "victor_harbor-61490-aus-bom"
    },
    {
        "index": 109,
        "Lat": 35.31195,
        "Lon": 139.74138,
        "HAT": 0.8772990703582764,
        "HAT_count": 7671,
        "MHHW": 0.514073443163554,
        "MHHW_count": 7671,
        "MHW": 0.474243625656528,
        "MHW_count": 14750,
        "MSL": -2.470245530722763e-05,
        "MSL_count": 184104,
        "MTL": 0.018182330857758004,
        "MTL_count": 7671,
        "MLW": -0.4411970465387044,
        "MLW_count": 14750,
        "MLLW": -0.7047669944675923,
        "MLLW_count": 7671,
        "LAT": -1.2395429611206055,
        "LAT_count": 7671,
        "tide_gauge_name": "ulladulla-216471-aus-bom"
    },
    {
        "index": 110,
        "Lat": 82.492,
        "Lon": -62.317,
        "HAT": 0.4493779242038727,
        "HAT_count": 7671,
        "MHHW": 0.27871063964499937,
        "MHHW_count": 7671,
        "MHW": 0.23965466880678185,
        "MHW_count": 14820,
        "MSL": 3.080295209925212e-06,
        "MSL_count": 184104,
        "MTL": -0.0028579069902821045,
        "MTL_count": 7671,
        "MLW": -0.2431103053974369,
        "MLW_count": 14822,
        "MLLW": -0.27074526839078517,
        "MLLW_count": 7671,
        "LAT": -0.5476254224777222,
        "LAT_count": 7671,
        "tide_gauge_name": "jervis_bay-216470-aus-bom"
    },
    {
        "index": 111,
        "Lat": 75.38,
        "Lon": -96.95,
        "HAT": 0.8858879804611206,
        "HAT_count": 7671,
        "MHHW": 0.5197956574843521,
        "MHHW_count": 7671,
        "MHW": 0.4215031357737107,
        "MHW_count": 14819,
        "MSL": 4.873404859014855e-06,
        "MSL_count": 184104,
        "MTL": 0.002528063080473124,
        "MTL_count": 7671,
        "MLW": -0.4169340758511584,
        "MLW_count": 14822,
        "MLLW": -0.5179998029721566,
        "MLLW_count": 7671,
        "LAT": -0.8646793961524963,
        "LAT_count": 7671,
        "tide_gauge_name": "port_stanvac-61583-aus-bom"
    },
    {
        "index": 112,
        "Lat": 75.383,
        "Lon": -96.95,
        "HAT": 0.886448860168457,
        "HAT_count": 7671,
        "MHHW": 0.5199582378380365,
        "MHHW_count": 7671,
        "MHW": 0.42157204611058496,
        "MHW_count": 14820,
        "MSL": 5.1309438971896885e-06,
        "MSL_count": 184104,
        "MTL": 0.002597168038723188,
        "MTL_count": 7671,
        "MLW": -0.41691737054335143,
        "MLW_count": 14821,
        "MLLW": -0.5179894938330004,
        "MLLW_count": 7671,
        "LAT": -0.8646903038024902,
        "LAT_count": 7671,
        "tide_gauge_name": "port_stanvac-100a-aus-uhslc_rq"
    },
    {
        "index": 113,
        "Lat": 67.88,
        "Lon": -115.22,
        "HAT": 0.31617841124534607,
        "HAT_count": 7579,
        "MHHW": 0.0825690412840429,
        "MHHW_count": 7579,
        "MHW": 0.07367819362054115,
        "MHW_count": 8309,
        "MSL": -1.105390435904368e-05,
        "MSL_count": 184104,
        "MTL": 0.0024894199417607133,
        "MTL_count": 7528,
        "MLW": -0.07628469315497509,
        "MLW_count": 8311,
        "MLLW": -0.07827623381442742,
        "MLLW_count": 7620,
        "LAT": -0.16580912470817566,
        "LAT_count": 7620,
        "tide_gauge_name": "albany-62120-aus-bom"
    },
    {
        "index": 114,
        "Lat": 74.66,
        "Lon": -94.88,
        "HAT": 1.0866515636444092,
        "HAT_count": 7671,
        "MHHW": 0.6301316378073357,
        "MHHW_count": 7671,
        "MHW": 0.4845413146935252,
        "MHW_count": 14817,
        "MSL": -4.648278773133917e-06,
        "MSL_count": 184104,
        "MTL": -0.0008723337245595249,
        "MTL_count": 7671,
        "MLW": -0.4877859275928594,
        "MLW_count": 14819,
        "MLLW": -0.612756064974365,
        "MLLW_count": 7671,
        "LAT": -0.9794601798057556,
        "LAT_count": 7671,
        "tide_gauge_name": "port_giles-61685-aus-bom"
    },
    {
        "index": 115,
        "Lat": 63.71,
        "Lon": -68.5,
        "HAT": 5.49610710144043,
        "HAT_count": 7671,
        "MHHW": 3.5328794997202464,
        "MHHW_count": 7671,
        "MHW": 3.3712616662117356,
        "MHW_count": 14818,
        "MSL": -1.290939886292954e-05,
        "MSL_count": 184104,
        "MTL": -0.048607432573667286,
        "MTL_count": 7671,
        "MLW": -3.468442193347015,
        "MLW_count": 14823,
        "MLLW": -3.57389640657365,
        "MLLW_count": 7671,
        "LAT": -5.723607063293457,
        "LAT_count": 7671,
        "tide_gauge_name": "crookhaven_heads-215408-aus-bom"
    },
    {
        "index": 116,
        "Lat": 62.8,
        "Lon": -69.78,
        "HAT": 5.78347110748291,
        "HAT_count": 7671,
        "MHHW": 3.7404194838095326,
        "MHHW_count": 7671,
        "MHW": 3.58696295375075,
        "MHW_count": 14822,
        "MSL": 1.8044317750482734e-05,
        "MSL_count": 184104,
        "MTL": -0.07760444744590655,
        "MTL_count": 7671,
        "MLW": -3.7299731714781315,
        "MLW_count": 14821,
        "MLLW": -3.8127630313734797,
        "MLLW_count": 7671,
        "LAT": -6.031522750854492,
        "LAT_count": 7671,
        "tide_gauge_name": "port_adelaide_inner_harbor-61610-aus-bom"
    },
    {
        "index": 117,
        "Lat": 72.76,
        "Lon": -77.48,
        "HAT": 1.2324483394622803,
        "HAT_count": 7671,
        "MHHW": 0.7524292368731743,
        "MHHW_count": 7671,
        "MHW": 0.5494407129461857,
        "MHW_count": 14821,
        "MSL": 5.998854977587437e-06,
        "MSL_count": 184104,
        "MTL": -0.006780497338762815,
        "MTL_count": 7671,
        "MLW": -0.5606603816360032,
        "MLW_count": 14818,
        "MLLW": -0.6759238066121386,
        "MLLW_count": 7671,
        "LAT": -1.0587736368179321,
        "LAT_count": 7671,
        "tide_gauge_name": "port_adelaide_outer_harbor-61600-aus-bom"
    },
    {
        "index": 118,
        "Lat": 53.85,
        "Lon": -79.15,
        "HAT": 1.09589421749115,
        "HAT_count": 7671,
        "MHHW": 0.6711588336271128,
        "MHHW_count": 7671,
        "MHW": 0.6325317002983711,
        "MHW_count": 14820,
        "MSL": 1.9577355032494295e-05,
        "MSL_count": 184104,
        "MTL": 0.0018404156240926692,
        "MTL_count": 7671,
        "MLW": -0.6254567152039755,
        "MLW_count": 14822,
        "MLLW": -0.6531338900669568,
        "MLLW_count": 7671,
        "LAT": -1.0238302946090698,
        "LAT_count": 7671,
        "tide_gauge_name": "port_lincoln-61900-aus-bom"
    },
    {
        "index": 119,
        "Lat": 61.34,
        "Lon": -64.9,
        "HAT": 3.9107272624969482,
        "HAT_count": 7671,
        "MHHW": 2.5441186114933947,
        "MHHW_count": 7671,
        "MHW": 2.416529913370691,
        "MHW_count": 14822,
        "MSL": 4.0106074554303485e-05,
        "MSL_count": 184104,
        "MTL": -0.0021988388102529006,
        "MTL_count": 7671,
        "MLW": -2.4228871025143546,
        "MLW_count": 14823,
        "MLLW": -2.515472133418227,
        "MLLW_count": 7671,
        "LAT": -4.190426349639893,
        "LAT_count": 7671,
        "tide_gauge_name": "buenos_aires-285a-arg-uhslc_rq"
    },
    {
        "index": 120,
        "Lat": 82.49,
        "Lon": -62.31,
        "HAT": 0.4293678104877472,
        "HAT_count": 7671,
        "MHHW": 0.26235713079889084,
        "MHHW_count": 7671,
        "MHW": 0.22589330531319723,
        "MHW_count": 14823,
        "MSL": 1.2209707094213439e-05,
        "MSL_count": 184104,
        "MTL": -0.0024469111088071057,
        "MTL_count": 7671,
        "MLW": -0.22879605086434848,
        "MLW_count": 14820,
        "MLLW": -0.2561315335597363,
        "MLLW_count": 7671,
        "LAT": -0.5571197867393494,
        "LAT_count": 7671,
        "tide_gauge_name": "port_kembla-60420-aus-bom"
    },
    {
        "index": 121,
        "Lat": 75.34,
        "Lon": -105.67,
        "HAT": 0.6628414988517761,
        "HAT_count": 7671,
        "MHHW": 0.41088409962725286,
        "MHHW_count": 7671,
        "MHW": 0.34755724506822194,
        "MHW_count": 14820,
        "MSL": 1.5048969093717792e-06,
        "MSL_count": 184104,
        "MTL": -0.00019261483723028282,
        "MTL_count": 7671,
        "MLW": -0.3459883963543685,
        "MLW_count": 14822,
        "MLLW": -0.3687286178717758,
        "MLLW_count": 7671,
        "LAT": -0.6700056791305542,
        "LAT_count": 7671,
        "tide_gauge_name": "port_kembla-342a-aus-uhslc_rq"
    },
    {
        "index": 122,
        "Lat": 58.45,
        "Lon": -78.1,
        "HAT": 0.31557539105415344,
        "HAT_count": 7671,
        "MHHW": 0.1275276493714284,
        "MHHW_count": 7671,
        "MHW": 0.09652072122151008,
        "MHW_count": 19614,
        "MSL": 4.091930367463805e-06,
        "MSL_count": 184104,
        "MTL": 0.007145564636188648,
        "MTL_count": 7671,
        "MLW": -0.07341289590658302,
        "MLW_count": 19620,
        "MLLW": -0.12690068394754014,
        "MLLW_count": 7671,
        "LAT": -0.28966450691223145,
        "LAT_count": 7671,
        "tide_gauge_name": "bremer_bay-bbbre01-aus-bom"
    },
    {
        "index": 123,
        "Lat": 36.9375,
        "Lon": 140.89195,
        "HAT": 0.7107136845588684,
        "HAT_count": 7671,
        "MHHW": 0.42494987687874225,
        "MHHW_count": 7671,
        "MHW": 0.3661171903909237,
        "MHW_count": 14607,
        "MSL": -1.3607191236476453e-05,
        "MSL_count": 184104,
        "MTL": 0.013036849573725242,
        "MTL_count": 7671,
        "MLW": -0.3404994360612309,
        "MLW_count": 14607,
        "MLLW": -0.5669184820652758,
        "MLLW_count": 7671,
        "LAT": -1.0222523212432861,
        "LAT_count": 7671,
        "tide_gauge_name": "north_cape_otou-ncpt-nzl-ttw"
    },
    {
        "index": 124,
        "Lat": 34.917,
        "Lon": 139.817,
        "HAT": 0.7701729536056519,
        "HAT_count": 7671,
        "MHHW": 0.4598366106396439,
        "MHHW_count": 7671,
        "MHW": 0.4162641852293964,
        "MHW_count": 14731,
        "MSL": -1.847027909427666e-05,
        "MSL_count": 184104,
        "MTL": 0.013801429533351142,
        "MTL_count": 7671,
        "MLW": -0.39093362112352015,
        "MLW_count": 14731,
        "MLLW": -0.6382894515715158,
        "MLLW_count": 7671,
        "LAT": -1.1047381162643433,
        "LAT_count": 7671,
        "tide_gauge_name": "simons_town-221-zaf-uhslc_fd"
    },
    {
        "index": 125,
        "Lat": 20.14,
        "Lon": 92.903,
        "HAT": 1.641389012336731,
        "HAT_count": 7671,
        "MHHW": 0.9161944098043626,
        "MHHW_count": 7671,
        "MHW": 0.8173742143661096,
        "MHW_count": 14821,
        "MSL": -4.056438198290859e-05,
        "MSL_count": 184104,
        "MTL": -0.0011610337457581368,
        "MTL_count": 7671,
        "MLW": -0.82624525011714,
        "MLW_count": 14819,
        "MLLW": -0.8960301804544095,
        "MLLW_count": 7671,
        "LAT": -1.714501976966858,
        "LAT_count": 7671,
        "tide_gauge_name": "mossel_bay-185a-zaf-uhslc_rq"
    },
    {
        "index": 126,
        "Lat": 16.483,
        "Lon": 97.617,
        "HAT": 3.836012840270996,
        "HAT_count": 7671,
        "MHHW": 1.8096913207683807,
        "MHHW_count": 7671,
        "MHW": 1.651847690781062,
        "MHW_count": 14826,
        "MSL": -0.0002630058913984786,
        "MSL_count": 184104,
        "MTL": 0.16202463943772524,
        "MTL_count": 7671,
        "MLW": -1.3134812378644558,
        "MLW_count": 14826,
        "MLLW": -1.3892169972140356,
        "MLLW_count": 7671,
        "LAT": -2.3382132053375244,
        "LAT_count": 7671,
        "tide_gauge_name": "knysna-186-zaf-uhslc_fd"
    },
    {
        "index": 127,
        "Lat": 16.465,
        "Lon": 97.622,
        "HAT": 3.835226535797119,
        "HAT_count": 7671,
        "MHHW": 1.8127240843654724,
        "MHHW_count": 7671,
        "MHW": 1.6541157826016764,
        "MHW_count": 14823,
        "MSL": -0.00026182255504160506,
        "MSL_count": 184104,
        "MTL": 0.15897829921892911,
        "MTL_count": 7671,
        "MLW": -1.3215590084621986,
        "MLW_count": 14824,
        "MLLW": -1.3978848248028628,
        "MLLW_count": 7671,
        "LAT": -2.3633008003234863,
        "LAT_count": 7671,
        "tide_gauge_name": "mossel_bay-185-zaf-uhslc_fd"
    },
    {
        "index": 128,
        "Lat": 26.17945,
        "Lon": 127.82472,
        "HAT": 1.189650297164917,
        "HAT_count": 7671,
        "MHHW": 0.665062293643405,
        "MHHW_count": 7671,
        "MHW": 0.6125568659362113,
        "MHW_count": 14822,
        "MSL": -2.4150606494377338e-05,
        "MSL_count": 184104,
        "MTL": 0.01022693339121915,
        "MTL_count": 7671,
        "MLW": -0.5959396561797866,
        "MLW_count": 14821,
        "MLLW": -0.8269008704548693,
        "MLLW_count": 7671,
        "LAT": -1.4453660249710083,
        "LAT_count": 7671,
        "tide_gauge_name": "knysna-186a-zaf-uhslc_rq"
    },
    {
        "index": 129,
        "Lat": 41.25638,
        "Lon": 141.145,
        "HAT": 0.4781535267829895,
        "HAT_count": 7671,
        "MHHW": 0.23872813894627698,
        "MHHW_count": 7671,
        "MHW": 0.22310604298137007,
        "MHW_count": 14821,
        "MSL": -1.4095051045220075e-05,
        "MSL_count": 184104,
        "MTL": 0.0046971344925896205,
        "MTL_count": 7671,
        "MLW": -0.21516316711510483,
        "MLW_count": 14820,
        "MLLW": -0.275149170402486,
        "MLLW_count": 7671,
        "LAT": -0.5658154487609863,
        "LAT_count": 7671,
        "tide_gauge_name": "botany_bay-60390-aus-bom"
    },
    {
        "index": 130,
        "Lat": 37.99045,
        "Lon": 139.21728,
        "HAT": 0.312696635723114,
        "HAT_count": 7652,
        "MHHW": 0.09621427020237855,
        "MHHW_count": 7652,
        "MHW": 0.07433267301958209,
        "MHW_count": 13826,
        "MSL": -1.1008830834542317e-05,
        "MSL_count": 184104,
        "MTL": 0.0025758602294888113,
        "MTL_count": 7645,
        "MLW": -0.06770731476035563,
        "MLW_count": 13823,
        "MLLW": -0.12143708214149883,
        "MLLW_count": 7664,
        "LAT": -0.35575953125953674,
        "LAT_count": 7664,
        "tide_gauge_name": "port_elizabeth-184-zaf-uhslc_fd"
    },
    {
        "index": 131,
        "Lat": 34.38445,
        "Lon": 133.82305,
        "HAT": 1.7090919017791748,
        "HAT_count": 7671,
        "MHHW": 1.1531168216794025,
        "MHHW_count": 7671,
        "MHW": 0.9655813901588973,
        "MHW_count": 14821,
        "MSL": 5.979500568006006e-06,
        "MSL_count": 184104,
        "MTL": 0.00826381511391517,
        "MTL_count": 7671,
        "MLW": -0.9421975352131449,
        "MLW_count": 14822,
        "MLLW": -1.2150321858643072,
        "MLLW_count": 7671,
        "LAT": -1.971315622329712,
        "LAT_count": 7671,
        "tide_gauge_name": "wallaroo-61780-aus-bom"
    },
    {
        "index": 132,
        "Lat": 39.74612,
        "Lon": 140.06583,
        "HAT": 0.2983000874519348,
        "HAT_count": 7652,
        "MHHW": 0.09181212430927276,
        "MHHW_count": 7652,
        "MHW": 0.07089769481253703,
        "MHW_count": 13509,
        "MSL": -1.585815843848385e-05,
        "MSL_count": 184104,
        "MTL": 0.0017979612816612588,
        "MTL_count": 7638,
        "MLW": -0.06752344259601088,
        "MLW_count": 13507,
        "MLLW": -0.11829826718694253,
        "MLLW_count": 7657,
        "LAT": -0.3249170184135437,
        "LAT_count": 7657,
        "tide_gauge_name": "cape_town-704-zaf-uhslc_fd"
    },
    {
        "index": 133,
        "Lat": 34.24055,
        "Lon": 132.55028,
        "HAT": 2.047527551651001,
        "HAT_count": 7671,
        "MHHW": 1.2929642341031569,
        "MHHW_count": 7671,
        "MHW": 1.1288776213586966,
        "MHW_count": 14822,
        "MSL": -3.6512554299795518e-06,
        "MSL_count": 184104,
        "MTL": -0.019507969147530797,
        "MTL_count": 7671,
        "MLW": -1.160612913821199,
        "MLW_count": 14821,
        "MLLW": -1.4468792224626563,
        "MLLW_count": 7671,
        "LAT": -2.3775343894958496,
        "LAT_count": 7671,
        "tide_gauge_name": "cape_town-704a-zaf-uhslc_rq"
    },
    {
        "index": 134,
        "Lat": 34.11805,
        "Lon": 133.00112,
        "HAT": 2.05100679397583,
        "HAT_count": 7671,
        "MHHW": 1.3823222727294449,
        "MHHW_count": 7671,
        "MHW": 1.1990382764289904,
        "MHW_count": 14822,
        "MSL": 1.554801972048113e-05,
        "MSL_count": 184104,
        "MTL": 0.012029363806017315,
        "MTL_count": 7671,
        "MLW": -1.1666192745805093,
        "MLW_count": 14821,
        "MLLW": -1.4576342014479071,
        "MLLW_count": 7671,
        "LAT": -2.308161497116089,
        "LAT_count": 7671,
        "tide_gauge_name": "esperance-62080-aus-bom"
    },
    {
        "index": 135,
        "Lat": 25.8686,
        "Lon": 131.2281,
        "HAT": 1.111247181892395,
        "HAT_count": 7671,
        "MHHW": 0.6069791693254487,
        "MHHW_count": 7671,
        "MHW": 0.5698758581520784,
        "MHW_count": 14822,
        "MSL": -2.0134784014459217e-05,
        "MSL_count": 184104,
        "MTL": 0.008375686456364792,
        "MTL_count": 7671,
        "MLW": -0.556801305519966,
        "MLW_count": 14823,
        "MLLW": -0.764055172837382,
        "MLLW_count": 7671,
        "LAT": -1.3129122257232666,
        "LAT_count": 7671,
        "tide_gauge_name": "esperance-176a-aus-uhslc_rq"
    },
    {
        "index": 136,
        "Lat": 31.02362,
        "Lon": 130.68917,
        "HAT": 1.416667103767395,
        "HAT_count": 7671,
        "MHHW": 0.7988788749381128,
        "MHHW_count": 7671,
        "MHW": 0.756835254546031,
        "MHW_count": 14821,
        "MSL": -2.7113142736666158e-05,
        "MSL_count": 184104,
        "MTL": 0.010866405132927937,
        "MTL_count": 7671,
        "MLW": -0.7397250361954727,
        "MLW_count": 14822,
        "MLLW": -1.016951633181912,
        "MLLW_count": 7671,
        "LAT": -1.7453067302703857,
        "LAT_count": 7671,
        "tide_gauge_name": "esperance-176-aus-uhslc_fd"
    },
    {
        "index": 137,
        "Lat": 32.77917,
        "Lon": 132.95888,
        "HAT": 1.1059094667434692,
        "HAT_count": 7671,
        "MHHW": 0.6082157641658958,
        "MHHW_count": 7671,
        "MHW": 0.572149967559717,
        "MHW_count": 14821,
        "MSL": -2.9117841371805952e-05,
        "MSL_count": 184104,
        "MTL": 0.013474872783949871,
        "MTL_count": 7671,
        "MLW": -0.549861900765771,
        "MLW_count": 14822,
        "MLLW": -0.7928861828620206,
        "MLLW_count": 7671,
        "LAT": -1.3994429111480713,
        "LAT_count": 7671,
        "tide_gauge_name": "fort_denison-333a-aus-uhslc_rq"
    },
    {
        "index": 138,
        "Lat": 34.6117,
        "Lon": 138.8492,
        "HAT": 0.8587060570716858,
        "HAT_count": 7671,
        "MHHW": 0.5044856236509667,
        "MHHW_count": 7671,
        "MHW": 0.4637281433110176,
        "MHW_count": 14764,
        "MSL": -2.1110242061697055e-05,
        "MSL_count": 184104,
        "MTL": 0.016156074654912554,
        "MTL_count": 7671,
        "MLW": -0.4348091405306745,
        "MLW_count": 14763,
        "MLLW": -0.698087099425694,
        "MLLW_count": 7671,
        "LAT": -1.2118782997131348,
        "LAT_count": 7671,
        "tide_gauge_name": "sydney_fort_denison-60370-aus-bom"
    },
    {
        "index": 139,
        "Lat": 34.62528,
        "Lon": 138.88638,
        "HAT": 0.8536562323570251,
        "HAT_count": 7671,
        "MHHW": 0.5001756485030512,
        "MHHW_count": 7671,
        "MHW": 0.460296531742196,
        "MHW_count": 14775,
        "MSL": -2.2113021263064856e-05,
        "MSL_count": 184104,
        "MTL": 0.016378607800633785,
        "MTL_count": 7671,
        "MLW": -0.43109779468178966,
        "MLW_count": 14774,
        "MLLW": -0.6926309843447784,
        "MLLW_count": 7671,
        "LAT": -1.197769045829773,
        "LAT_count": 7671,
        "tide_gauge_name": "fort_denison-333-aus-uhslc_fd"
    },
    {
        "index": 140,
        "Lat": 29.84195,
        "Lon": 129.84778,
        "HAT": 1.248000144958496,
        "HAT_count": 7671,
        "MHHW": 0.6862381677392284,
        "MHHW_count": 7671,
        "MHW": 0.647775216789817,
        "MHW_count": 14821,
        "MSL": -2.8320858658913456e-05,
        "MSL_count": 184104,
        "MTL": 0.013790989529775453,
        "MTL_count": 7671,
        "MLW": -0.623801581315743,
        "MLW_count": 14821,
        "MLLW": -0.8788552971158806,
        "MLLW_count": 7671,
        "LAT": -1.553841233253479,
        "LAT_count": 7671,
        "tide_gauge_name": "sydney_port_jackson-213470-aus-bom"
    },
    {
        "index": 141,
        "Lat": 29.842,
        "Lon": 129.842,
        "HAT": 1.2461142539978027,
        "HAT_count": 7671,
        "MHHW": 0.685831353394697,
        "MHHW_count": 7671,
        "MHW": 0.6480708810069703,
        "MHW_count": 14820,
        "MSL": -2.754740530596212e-05,
        "MSL_count": 184104,
        "MTL": 0.013544028452573478,
        "MTL_count": 7671,
        "MLW": -0.6244511153403685,
        "MLW_count": 14822,
        "MLLW": -0.8795680166914789,
        "MLLW_count": 7671,
        "LAT": -1.555131435394287,
        "LAT_count": 7671,
        "tide_gauge_name": "juan_fernandez-021b-chl-uhslc_rq"
    },
    {
        "index": 142,
        "Lat": 29.833,
        "Lon": 129.85,
        "HAT": 1.2464936971664429,
        "HAT_count": 7671,
        "MHHW": 0.6853466235463506,
        "MHHW_count": 7671,
        "MHW": 0.6470130408592472,
        "MHW_count": 14820,
        "MSL": -2.8397105137753985e-05,
        "MSL_count": 184104,
        "MTL": 0.013780790065674488,
        "MTL_count": 7671,
        "MLW": -0.6229445985608248,
        "MLW_count": 14822,
        "MLLW": -0.8779526488879035,
        "MLLW_count": 7671,
        "LAT": -1.5517607927322388,
        "LAT_count": 7671,
        "tide_gauge_name": "busselton_port_geographe-bsgeo01-aus-bom"
    },
    {
        "index": 143,
        "Lat": 33.46695,
        "Lon": 129.96167,
        "HAT": 1.314124584197998,
        "HAT_count": 7671,
        "MHHW": 0.6723960290158251,
        "MHHW_count": 7671,
        "MHW": 0.608232528507798,
        "MHW_count": 14817,
        "MSL": -1.6219658503928965e-05,
        "MSL_count": 184104,
        "MTL": 0.008488987676781155,
        "MTL_count": 7668,
        "MLW": -0.5875359974238863,
        "MLW_count": 14817,
        "MLLW": -0.751571673010833,
        "MLLW_count": 7668,
        "LAT": -1.3867214918136597,
        "LAT_count": 7668,
        "tide_gauge_name": "juan_fernandez-021-chl-uhslc_fd"
    },
    {
        "index": 144,
        "Lat": 35.12945,
        "Lon": 140.24945,
        "HAT": 0.7775284051895142,
        "HAT_count": 7671,
        "MHHW": 0.4612253434405366,
        "MHHW_count": 7671,
        "MHW": 0.41720938611352965,
        "MHW_count": 14754,
        "MSL": -1.649915252494259e-05,
        "MSL_count": 184104,
        "MTL": 0.01543228758271396,
        "MTL_count": 7671,
        "MLW": -0.3890169453465796,
        "MLW_count": 14754,
        "MLLW": -0.6306653280496599,
        "MLLW_count": 7671,
        "LAT": -1.1040586233139038,
        "LAT_count": 7671,
        "tide_gauge_name": "patonga-212440-aus-bom"
    },
    {
        "index": 145,
        "Lat": 39.18555,
        "Lon": 139.54778,
        "HAT": 0.283295214176178,
        "HAT_count": 7644,
        "MHHW": 0.09334181183601416,
        "MHHW_count": 7644,
        "MHW": 0.07256446294294347,
        "MHW_count": 13770,
        "MSL": -1.2563416950746722e-05,
        "MSL_count": 184104,
        "MTL": 0.002630322842435652,
        "MTL_count": 7640,
        "MLW": -0.06626924119592542,
        "MLW_count": 13773,
        "MLLW": -0.11968591930150935,
        "MLLW_count": 7667,
        "LAT": -0.32347753643989563,
        "LAT_count": 7667,
        "tide_gauge_name": "bunbury-62190-aus-bom"
    },
    {
        "index": 146,
        "Lat": 36.25445,
        "Lon": 136.14888,
        "HAT": 0.33037713170051575,
        "HAT_count": 7658,
        "MHHW": 0.0975092698470427,
        "MHHW_count": 7658,
        "MHW": 0.07436791227780853,
        "MHW_count": 13972,
        "MSL": -1.2651516585967545e-05,
        "MSL_count": 184104,
        "MTL": 0.002182276488888777,
        "MTL_count": 7645,
        "MLW": -0.06782089343287512,
        "MLW_count": 13970,
        "MLLW": -0.1204322918875191,
        "MLLW_count": 7658,
        "LAT": -0.3448231518268585,
        "LAT_count": 7658,
        "tide_gauge_name": "port_pirie-61800-aus-bom"
    },
    {
        "index": 147,
        "Lat": 42.60583,
        "Lon": 141.81722,
        "HAT": 0.7091708183288574,
        "HAT_count": 7671,
        "MHHW": 0.4462511466293769,
        "MHHW_count": 7671,
        "MHW": 0.3755191931969856,
        "MHW_count": 14569,
        "MSL": -2.3160395460903087e-05,
        "MSL_count": 184104,
        "MTL": 0.0156742316894575,
        "MTL_count": 7671,
        "MLW": -0.34362140415956605,
        "MLW_count": 14568,
        "MLLW": -0.5803389331444557,
        "MLLW_count": 7671,
        "LAT": -1.0161370038986206,
        "LAT_count": 7671,
        "tide_gauge_name": "valparaiso-081-chl-uhslc_fd"
    },
    {
        "index": 148,
        "Lat": 24.4522,
        "Lon": 122.9419,
        "HAT": 1.049666166305542,
        "HAT_count": 7666,
        "MHHW": 0.5763795432330204,
        "MHHW_count": 7666,
        "MHW": 0.49275573892709507,
        "MHW_count": 14803,
        "MSL": -2.2191791711624812e-05,
        "MSL_count": 184104,
        "MTL": 0.006914802803534444,
        "MTL_count": 7666,
        "MLW": -0.4812728604311879,
        "MLW_count": 14800,
        "MLLW": -0.6894239528271477,
        "MLLW_count": 7671,
        "LAT": -1.2707470655441284,
        "LAT_count": 7671,
        "tide_gauge_name": "valparaiso-081a-chl-uhslc_rq"
    },
    {
        "index": 149,
        "Lat": 28.39917,
        "Lon": 129.49778,
        "HAT": 1.213971734046936,
        "HAT_count": 7671,
        "MHHW": 0.6548202145242998,
        "MHHW_count": 7671,
        "MHW": 0.6168179893641237,
        "MHW_count": 14822,
        "MSL": -2.554654147514323e-05,
        "MSL_count": 184104,
        "MTL": 0.011146785717928438,
        "MTL_count": 7671,
        "MLW": -0.5977121307184058,
        "MLW_count": 14820,
        "MLLW": -0.8128208267305684,
        "MLLW_count": 7671,
        "LAT": -1.423250675201416,
        "LAT_count": 7671,
        "tide_gauge_name": "saldahna_bay-703-zaf-uhslc_fd"
    },
    {
        "index": 150,
        "Lat": 32.133,
        "Lon": 121.617,
        "HAT": 3.081639528274536,
        "HAT_count": 7671,
        "MHHW": 1.9066292886091574,
        "MHHW_count": 7671,
        "MHW": 1.7869401547071053,
        "MHW_count": 14822,
        "MSL": 6.809982162831593e-06,
        "MSL_count": 184104,
        "MTL": -0.05817429326940554,
        "MTL_count": 7671,
        "MLW": -1.8908372169736165,
        "MLW_count": 14821,
        "MLLW": -2.0183740186435455,
        "MLLW_count": 7671,
        "LAT": -3.3990392684936523,
        "LAT_count": 7671,
        "tide_gauge_name": "east_london-187a-zaf-uhslc_rq"
    },
    {
        "index": 151,
        "Lat": 35.56805,
        "Lon": 140.04555,
        "HAT": 0.9998493194580078,
        "HAT_count": 7671,
        "MHHW": 0.5952454118281234,
        "MHHW_count": 7671,
        "MHW": 0.5516840020271031,
        "MHW_count": 14778,
        "MSL": -2.678119393402439e-05,
        "MSL_count": 184104,
        "MTL": 0.011393952259467441,
        "MTL_count": 7671,
        "MLW": -0.5333381278183157,
        "MLW_count": 14781,
        "MLLW": -0.8112287000775932,
        "MLLW_count": 7671,
        "LAT": -1.3784444332122803,
        "LAT_count": 7671,
        "tide_gauge_name": "whyalla-61840-aus-bom"
    },
    {
        "index": 152,
        "Lat": 20.15,
        "Lon": 92.9,
        "HAT": 1.6262891292572021,
        "HAT_count": 7671,
        "MHHW": 0.9126654667105988,
        "MHHW_count": 7671,
        "MHW": 0.8158427169273786,
        "MHW_count": 14822,
        "MSL": -3.647699338245041e-05,
        "MSL_count": 184104,
        "MTL": -0.0015244932345599607,
        "MTL_count": 7671,
        "MLW": -0.8252919816774167,
        "MLW_count": 14821,
        "MLLW": -0.8932387753592649,
        "MLLW_count": 7671,
        "LAT": -1.7046544551849365,
        "LAT_count": 7671,
        "tide_gauge_name": "east_london-187-zaf-uhslc_fd"
    },